{"1015 Folsom":{"closestBar":{"name":"The Endup","address":"401 6th Street","city":"San Francisco","state":"CA","zip":"94103","lat":"37.7772746","lng":"-122.4037695"},"distance":201.28048959785076},"15 Romolo":{"closestBar":{"name":"Noc Noc On Broadway","address":"515 Broadway","city":"San Francisco","state":"CA","zip":"94109","lat":"37.7978398","lng":"-122.405852"},"distance":52.72806906688566},"21st Amendment Brewery Cafe":{"closestBar":{"name":"Tres Agaves Restaurant","address":"130 Townsend Street","city":"San Francisco","state":"CA","zip":"94107","lat":"37.7802837","lng":"-122.391462"},"distance":264.44427793808666},"24th Street Bar":{"closestBar":{"name":"El Farolito Soccer Club","address":"2779 Mission Street","city":"San Francisco","state":"CA","zip":"94110","lat":"37.7526525","lng":"-122.4182227"},"distance":100.97314503448509},"440":{"closestBar":{"name":"Q Bar","address":"456 Castro Street","city":"San Francisco","state":"CA","zip":"94114","lat":"37.7616058","lng":"-122.4353137"},"distance":25.563296064628172},"4th Street Bar and Grill":{"closestBar":{"name":"Bin 55","address":"780 Mission Street","city":"San Francisco","state":"CA","zip":"94103","lat":"37.7854871","lng":"-122.4046939"},"distance":41.336014161081934},"54 Mint Wine Bar":{"closestBar":{"name":"Mezzanine","address":"444 Jessie","city":"San Francisco","state":"CA","zip":"94103","lat":"37.78248430000001","lng":"-122.4080736"},"distance":13.134140890747224},"540 Club":{"closestBar":{"name":"Richmond Republic Draught House","address":"642 Clement Street","city":"San Francisco","state":"CA","zip":"94118","lat":"37.7830871","lng":"-122.4662509"},"distance":94.48450309030797},"5A5 Steak Lounge":{"closestBar":{"name":"L'Olivier","address":"465 Davis Court","city":"San Francisco","state":"CA","zip":"94111","lat":"37.7966633","lng":"-122.3984686"},"distance":164.13721536816993},"83 Proof":{"closestBar":{"name":"Rn74","address":"301 Mission Street","city":"San Francisco","state":"CA","zip":"94105","lat":"37.7903824","lng":"-122.3961531"},"distance":140.73182690124446},"Abbey Tavern":{"closestBar":{"name":"The Bitter End","address":"441 Clement Street","city":"San Francisco","state":"CA","zip":"94118","lat":"37.7827265","lng":"-122.4640397"},"distance":172.5504006481347},"Absinthe Brasserie & Bar":{"closestBar":{"name":"Sugar Lounge","address":"377 Hayes Street","city":"San Francisco","state":"CA","zip":"94102","lat":"37.7768267","lng":"-122.4225407"},"distance":35.49466149696686},"Abv":{"closestBar":{"name":"Kilowatt","address":"3160 16th Street","city":"San Francisco","state":"CA","zip":"94103","lat":"37.7650579","lng":"-122.4232555"},"distance":28.247842782552613},"ABV":{"closestBar":{"name":"Bar San Pancho","address":"3198 16th Street","city":"San Francisco","state":"CA","zip":"94103","lat":"37.7650777","lng":"-122.4239922"},"distance":36.76181301311735},"Ace's":{"closestBar":{"name":"Plush Room Cabaret","address":"940 Sutter Street","city":"San Francisco","state":"CA","zip":"94109","lat":"37.7886297","lng":"-122.4159743"},"distance":68.32899029507442},"Alchemist Bar & Lounge":{"closestBar":{"name":"District Wine Lounge","address":"216 Townsend Street","city":"San Francisco","state":"CA","zip":"94107","lat":"37.7786338","lng":"-122.3933195"},"distance":72.3041950915712},"Ales Unlimited Basement":{"closestBar":{"name":"Harrington's Harry Pub","address":"460 Larkin Street","city":"San Francisco","state":"CA","zip":"94102","lat":"37.78226859999999","lng":"-122.4171251"},"distance":150.46790042594674},"Aliment":{"closestBar":{"name":"Summer Place","address":"801 Bush Street","city":"San Francisco","state":"CA","zip":"94108","lat":"37.7897556","lng":"-122.410595"},"distance":54.34359045099627},"Alioto's":{"closestBar":{"name":"Sabella & La Torre","address":"2809 Taylor Street","city":"San Francisco","state":"CA","zip":"94133","lat":"37.8084592","lng":"-122.4159347"},"distance":29.08052527667733},"AMD Project":{"closestBar":{"name":"The Office","address":"194 Church Street","city":"San Francisco","state":"CA","zip":"94114","lat":"37.7679404","lng":"-122.4291907"},"distance":5.868253430260072},"Ame Restaurant":{"closestBar":{"name":"Vitrine","address":"125 3rd Street","city":"San Francisco","state":"CA","zip":"94103","lat":"37.7862856","lng":"-122.4013086"},"distance":29.615525615106606},"Amelie":{"closestBar":{"name":"Cabin","address":"1750 Polk Street","city":"San Francisco","state":"CA","zip":"94109","lat":"37.79304","lng":"-122.4210806"},"distance":12.23129512221562},"Americano":{"closestBar":{"name":"Shanghai 1930--CLOSED","address":"133 Steuart Street","city":"San Francisco","state":"CA","zip":"94105","lat":"37.7930933","lng":"-122.3925683"},"distance":98.72906141281004},"Amnesia":{"closestBar":{"name":"The Phoenix Bar & Restaurant","address":"811 Valencia Street","city":"San Francisco","state":"CA","zip":"94110","lat":"37.7598422","lng":"-122.4210876"},"distance":59.334196935175726},"Another Monkey":{"closestBar":{"name":"Thieves Tavern","address":"496 14th Street","city":"San Francisco","state":"CA","zip":"94103","lat":"37.7681078","lng":"-122.4241725"},"distance":149.9192515052066},"Arabian Nights Restaurant":{"closestBar":{"name":"Bruno's","address":"2389 Mission Street","city":"San Francisco","state":"CA","zip":"94110","lat":"37.7589582","lng":"-122.4188289"},"distance":63.22165379759921},"Argus Lounge":{"closestBar":{"name":"Knockout","address":"3223 Mission Street","city":"San Francisco","state":"CA","zip":"94110","lat":"37.7451489","lng":"-122.4199626"},"distance":89.15358597939444},"AsiaSF":{"closestBar":{"name":"Tank 18 Winery","address":"1345 Howard Street","city":"San Francisco","state":"CA","zip":"94103","lat":"37.7742406","lng":"-122.4136101"},"distance":116.89978787664619},"Atami Sushi Bar & Grill":{"closestBar":{"name":"Bobo's Lounge","address":"1434 Lombard Street","city":"San Francisco","state":"CA","zip":"94123","lat":"37.801407","lng":"-122.4252717"},"distance":325.80479308845196},"Atlas Cafe":{"closestBar":{"name":"Trick Dog","address":"3010 20th Street","city":"San Francisco","state":"CA","zip":"94110","lat":"37.7593217","lng":"-122.4111748"},"distance":48.87913814127021},"Atlas Tap Room":{"closestBar":{"name":"House Of Shields","address":"39 New Montgomery Street","city":"San Francisco","state":"CA","zip":"94105","lat":"37.7882737","lng":"-122.4013083"},"distance":102.02007074750541},"ATwater Tavern":{"closestBar":{"name":"Mission Bay Wine & Cheese","address":"114 Channel Street","city":"San Francisco","state":"CA","zip":"94158","lat":"37.7746773","lng":"-122.391388"},"distance":368.4932985484346},"Aunt Charlies Lounge":{"closestBar":{"name":"Big Bar","address":"98 Turk Street","city":"San Francisco","state":"CA","zip":"94102","lat":"37.783492","lng":"-122.4105791"},"distance":86.0537290175592},"Avenue Lounge":{"closestBar":{"name":"Tiki Haven","address":"1334 Noriega St","city":"San Francisco","state":"CA","zip":"94116","lat":"37.754295","lng":"-122.4781838"},"distance":8.415299112713901},"Azucar Lounge":{"closestBar":{"name":"Powerhouse","address":"1347 Folsom Street","city":"San Francisco","state":"CA","zip":"94103","lat":"37.7730725","lng":"-122.4121271"},"distance":105.87038438621714},"B Restaurant & Bar":{"closestBar":{"name":"Jillian's","address":"101 4th Street","city":"San Francisco","state":"CA","zip":"94103","lat":"37.7842491","lng":"-122.4032115"},"distance":116.23672600460179},"Bacchus Kirk":{"closestBar":{"name":"Pub Sutter","address":"700 Sutter Street","city":"San Francisco","state":"CA","zip":"94109","lat":"37.7889228","lng":"-122.4121485"},"distance":68.35312257220555},"Badlands":{"closestBar":{"name":"Harvey's","address":"500 Castro Street","city":"San Francisco","state":"CA","zip":"94114","lat":"37.7607515","lng":"-122.435205"},"distance":23.47466815587218},"Bamboo Hut":{"closestBar":{"name":"Zebra Lounge","address":"447 Broadway","city":"San Francisco","state":"CA","zip":"94133","lat":"37.7979148","lng":"-122.4048266"},"distance":24.11312523700666},"Banshee Bar":{"closestBar":{"name":"The Hidden Vine","address":"620 Post Street","city":"San Francisco","state":"CA","zip":"94109","lat":"37.78801929999999","lng":"-122.4121724"},"distance":27.566046039971678},"Bar 1915":{"closestBar":{"name":"Club Minibar-Downtown","address":"500 Sutter Street","city":"San Francisco","state":"CA","zip":"94108","lat":"37.789497","lng":"-122.4090103"},"distance":17.897816219783227},"Bar 333":{"closestBar":{"name":"Fish & Farm","address":"424 Clay Street","city":"San Francisco","state":"CA","zip":"94111","lat":"37.7951044","lng":"-122.4007895"},"distance":48.21899334404106},"Bar 587":{"closestBar":{"name":"Sakana","address":"605 Post Street","city":"San Francisco","state":"CA","zip":"94109","lat":"37.7877242","lng":"-122.4120195"},"distance":54.17709373578216},"Bar 821":{"closestBar":{"name":"Mini Bar Sf","address":"837 Divisadero Street","city":"San Francisco","state":"CA","zip":"94117","lat":"37.7774002","lng":"-122.4384474"},"distance":21.26946950295402},"Bar 888":{"closestBar":{"name":"The Chieftain Irish Pub & Restaurant","address":"198 5th Street","city":"San Francisco","state":"CA","zip":"94103","lat":"37.781468","lng":"-122.405287"},"distance":91.68413363479084},"Bar Agricole":{"closestBar":{"name":"Buzz Works Sports Tavern","address":"365 11th Street","city":"San Francisco","state":"CA","zip":"94103","lat":"37.7712896","lng":"-122.4129159"},"distance":28.31977713631425},"Bar and restaraunt":{"closestBar":{"name":"Mercer Restaurant Group","address":"1085 Mission Street","city":"San Francisco","state":"CA","zip":"94103","lat":"37.7794022","lng":"-122.4103967"},"distance":68.95176395067988},"Bar Basic":{"closestBar":{"name":"Coin-Op Game Room","address":"508 4th Street","city":"San Francisco","state":"CA","zip":"94107","lat":"37.7792122","lng":"-122.3981003"},"distance":136.42130359442345},"Bar Crudo":{"closestBar":{"name":"Tunner Top","address":"601 Bush Street","city":"San Francisco","state":"CA","zip":"94108","lat":"37.7902053","lng":"-122.4073951"},"distance":7.134269138018981},"Bar Drake":{"closestBar":{"name":"Scala's Bistro","address":"432 Powell Street","city":"San Francisco","state":"CA","zip":"94102","lat":"37.7888118","lng":"-122.4083793"},"distance":25.149869656870273},"Bar None":{"closestBar":{"name":"Perry's","address":"1944 Union Street","city":"San Francisco","state":"CA","zip":"94123","lat":"37.7978273","lng":"-122.4313074"},"distance":60.84603828448023},"Bar Norcini":{"closestBar":{"name":"Lefty O'Doul's Restaurant & Cocktail Lounge","address":"333 Geary Street","city":"San Francisco","state":"CA","zip":"94102","lat":"37.7871974","lng":"-122.4087708"},"distance":50.70433171086376},"Bar San Pancho":{"closestBar":{"name":"Elixir","address":"3200 16th Street","city":"San Francisco","state":"CA","zip":"94103","lat":"37.7649919","lng":"-122.4243173"},"distance":30.127695515231274},"Bar Vero":{"closestBar":{"name":"The Edge","address":"4149 18th Street","city":"San Francisco","state":"CA","zip":"94114","lat":"37.7606565","lng":"-122.4360035"},"distance":82.23223032319484},"Barney's Gourmet Hamburgers":{"closestBar":{"name":"The Peak's","address":"1316 Castro Street","city":"San Francisco","state":"CA","zip":"94114","lat":"37.7510037","lng":"-122.4343059"},"distance":80.98326756276009},"Bartlett Hall":{"closestBar":{"name":"Bar Norcini","address":"225 Powell Street","city":"San Francisco","state":"CA","zip":"94102","lat":"37.7868784","lng":"-122.4083585"},"distance":54.817357047672914},"Beach Chalet Brewery & Restaurant":{"closestBar":{"name":"Beachside Cafe","address":"4300 Judah Street","city":"San Francisco","state":"CA","zip":"94122","lat":"37.7604374","lng":"-122.5082526"},"distance":1020.4430209850929},"Beachside Cafe":{"closestBar":{"name":"Pittsburgh's Pub","address":"4207 Judah Street","city":"San Francisco","state":"CA","zip":"94122","lat":"37.760207","lng":"-122.5072831"},"distance":88.99451804709224},"Beauty Bar":{"closestBar":{"name":"Hog and Rocks","address":"3431 19th Street","city":"San Francisco","state":"CA","zip":"94110","lat":"37.7600837","lng":"-122.4198861"},"distance":82.19067469681715},"Benders Bar and Grill":{"closestBar":{"name":"Whitechapel","address":"600 Polk Street","city":"San Francisco","state":"CA","zip":"94102","lat":"37.7823999","lng":"-122.4188759"},"distance":170.04838836835566},"Beretta":{"closestBar":{"name":"Latin American Club","address":"3286 22nd Street","city":"San Francisco","state":"CA","zip":"94110","lat":"37.7554167","lng":"-122.4206674"},"distance":175.09972551883882},"Bergerac":{"closestBar":{"name":"Halcyon","address":"314 11th Street","city":"San Francisco","state":"CA","zip":"94103","lat":"37.771465","lng":"-122.4139198"},"distance":10.159732546262473},"Big Bar":{"closestBar":{"name":"PianoFight","address":"144 Taylor Street","city":"San Francisco","state":"CA","zip":"94102","lat":"37.7839092","lng":"-122.4106652"},"distance":47.003541328263275},"Billiard Palacade":{"closestBar":{"name":"Dark Horse Inn","address":"942 Geneva Avenue","city":"San Francisco","state":"CA","zip":"94112","lat":"37.7159079","lng":"-122.4405531"},"distance":67.99690627336228},"Bimbo's 365 Club":{"closestBar":{"name":"International Sports Club","address":"1000 Columbus Avenue","city":"San Francisco","state":"CA","zip":"94133","lat":"37.8039248","lng":"-122.4151144"},"distance":54.70185317974611},"Bin 38":{"closestBar":{"name":"Gravity","address":"3251 Scott Street","city":"San Francisco","state":"CA","zip":"94123","lat":"37.799838","lng":"-122.4413992"},"distance":43.33104888739068},"Bin 480 Bar & Bistro in Marriott on Union Square":{"closestBar":{"name":"Bar Drake","address":"450 Powell Street","city":"San Francisco","state":"CA","zip":"94102","lat":"37.7890363","lng":"-122.4083445"},"distance":46.875548445390734},"Bin 55":{"closestBar":{"name":"4th Street Bar and Grill","address":"55 4th Street","city":"San Francisco","state":"CA","zip":"94103","lat":"37.7851477","lng":"-122.404502"},"distance":41.336014161081934},"Bistro Sf Grill":{"closestBar":{"name":"Wild Hare","address":"2801 California Street","city":"San Francisco","state":"CA","zip":"94115","lat":"37.7879102","lng":"-122.4405764"},"distance":21.23476717318991},"Bitter Badger":{"closestBar":{"name":"Encore Karaoke Lounge","address":"1550 California Street","city":"San Francisco","state":"CA","zip":"94109","lat":"37.7909005","lng":"-122.4200354"},"distance":10.40061487091802},"Bix Restaurant":{"closestBar":{"name":"Cigar Bar & Grill","address":"850 Montgomery Street","city":"San Francisco","state":"CA","zip":"94133","lat":"37.7972336","lng":"-122.4034106"},"distance":57.830495821726366},"Black Magic":{"closestBar":{"name":"The Black Horse London Pub","address":"1514 Union Street","city":"San Francisco","state":"CA","zip":"94123","lat":"37.798609","lng":"-122.4244905"},"distance":317.65795020394876},"Black Sands":{"closestBar":{"name":"Danny Coyle's","address":"668 Haight Street","city":"San Francisco","state":"CA","zip":"94117","lat":"37.7719452","lng":"-122.4332982"},"distance":73.2543919571607},"Blackbird":{"closestBar":{"name":"Lucky 13","address":"2140 Market Street","city":"San Francisco","state":"CA","zip":"94114","lat":"37.7671503","lng":"-122.4299645"},"distance":34.889978300332494},"Blackthorn":{"closestBar":{"name":"Mucky Duck","address":"1315 9th Avenue","city":"San Francisco","state":"CA","zip":"94122","lat":"37.7637282","lng":"-122.4665495"},"distance":71.38460668897069},"Blanc et Rouge":{"closestBar":{"name":"Royal Exchange","address":"301 Sacramento Street","city":"San Francisco","state":"CA","zip":"94111","lat":"37.7941431","lng":"-122.3992091"},"distance":104.9099095781222},"Blondie's Bar and No Grill":{"closestBar":{"name":"Casanova Lounge","address":"527 Valencia Street","city":"San Francisco","state":"CA","zip":"94110","lat":"37.7643936","lng":"-122.4216627"},"distance":44.89775655999951},"Bloodhound":{"closestBar":{"name":"Terroir","address":"1116 Folsom Street","city":"San Francisco","state":"CA","zip":"94103","lat":"37.7766256","lng":"-122.4084551"},"distance":95.59801279839482},"Blow Buddies":{"closestBar":{"name":"1015 Folsom","address":"1015 Folsom Street","city":"San Francisco","state":"CA","zip":"94103","lat":"37.7781117","lng":"-122.4058001"},"distance":302.0574225545739},"Blue Cellars":{"closestBar":{"name":"The Wild Side West","address":"424 Cortland Avenue","city":"San Francisco","state":"CA","zip":"94110","lat":"37.7390005","lng":"-122.4172051"},"distance":465.2398047911406},"Blue Mermaid":{"closestBar":{"name":"Capurro's","address":"498 Jefferson Street","city":"San Francisco","state":"CA","zip":"94109","lat":"37.8078414","lng":"-122.4202248"},"distance":38.185915248576755},"Blue Pea":{"closestBar":{"name":"Skylark","address":"3089 16th Street","city":"San Francisco","state":"CA","zip":"94103","lat":"37.7647142","lng":"-122.4216181"},"distance":31.3601738477744},"Blueprint Tap Room":{"closestBar":{"name":"Mars Bar & Restaurant","address":"798 Brannan Street","city":"San Francisco","state":"CA","zip":"94103","lat":"37.7732647","lng":"-122.4031788"},"distance":348.9827177151053},"Blur":{"closestBar":{"name":"Hemlock Tavern","address":"1131 Polk Street","city":"San Francisco","state":"CA","zip":"94109","lat":"37.7873893","lng":"-122.4202587"},"distance":23.3146364225769},"Blush! Wine Bar":{"closestBar":{"name":"Toad Hall","address":"4146 18th Street","city":"San Francisco","state":"CA","zip":"94114","lat":"37.7609869","lng":"-122.4358032"},"distance":59.91206760073898},"Bobo's Lounge":{"closestBar":{"name":"Black Magic","address":"1400 Lombard Street","city":"San Francisco","state":"CA","zip":"94123","lat":"37.8014508","lng":"-122.4248601"},"distance":36.48947061813086},"Boboquivari's":{"closestBar":{"name":"Calzone's Pizza Cucina","address":"430 Columbus Avenue","city":"San Francisco","state":"CA","zip":"94133","lat":"37.7991021","lng":"-122.4081675"},"distance":6.855629570207739},"Bocadillos":{"closestBar":{"name":"Taverna Aventine","address":"582 Washington Street","city":"San Francisco","state":"CA","zip":"94111","lat":"37.7958183","lng":"-122.4028798"},"distance":25.32507090883534},"Bocce Cafe":{"closestBar":{"name":"Grant & Green Saloon","address":"1371 Grant Avenue","city":"San Francisco","state":"CA","zip":"94133","lat":"37.7995667","lng":"-122.4075038"},"distance":38.359095861950465},"Boho":{"closestBar":{"name":"California Wine Merchant","address":"2113 Chestnut Street","city":"San Francisco","state":"CA","zip":"94123","lat":"37.8004043","lng":"-122.4381975"},"distance":41.93195587006625},"Bon Marche Brasserie & Bar":{"closestBar":{"name":"The Beer Hall","address":"1 Polk Street","city":"San Francisco","state":"CA","zip":"94102","lat":"37.77678700000001","lng":"-122.418101"},"distance":151.74101187036808},"Bond Bar":{"closestBar":{"name":"Blue Pea","address":"525 Valencia Street","city":"San Francisco","state":"CA","zip":"94110","lat":"37.7644322","lng":"-122.421613"},"distance":50.52838432964822},"BooM BooM RooM":{"closestBar":{"name":"The Fillmore","address":"1805 Geary Boulevard","city":"San Francisco","state":"CA","zip":"94115","lat":"37.7840042","lng":"-122.4331332"},"distance":66.67732728569293},"Boomerang Cocktail Lounge":{"closestBar":{"name":"Avenue Lounge","address":"1334 Noriega Street","city":"San Francisco","state":"CA","zip":"94122","lat":"37.7543693","lng":"-122.478202"},"distance":87.52895848883274},"Boss Nightclub":{"closestBar":{"name":"City Nights","address":"715 Harrison Street","city":"San Francisco","state":"CA","zip":"94107","lat":"37.7820285","lng":"-122.3976578"},"distance":103.89752286796458},"Bottom of the Hill":{"closestBar":{"name":"Thee Parkside","address":"1600 17th Street","city":"San Francisco","state":"CA","zip":"94107","lat":"37.7651653","lng":"-122.3998925"},"distance":304.2740636063009},"Bottoms Up Bar & Lounge":{"closestBar":{"name":"Dr's","address":"4826 Mission Street","city":"San Francisco","state":"CA","zip":"94112","lat":"37.7209469","lng":"-122.4378547"},"distance":262.7911069566571},"Bourbon & Branch":{"closestBar":{"name":"Tradition","address":"441 Jones Street","city":"San Francisco","state":"CA","zip":"94102","lat":"37.7855303","lng":"-122.4132072"},"distance":40.55325901309499},"Brasserie S & P":{"closestBar":{"name":"Ruru Kitchen","address":"532 Market Street","city":"San Francisco","state":"CA","zip":"94104","lat":"37.790593","lng":"-122.4003129"},"distance":211.46644331111628},"Brewcade":{"closestBar":{"name":"Willkommen Wurst.bier.garten","address":"2198 Market Street","city":"San Francisco","state":"CA","zip":"94114","lat":"37.7664214","lng":"-122.4307892"},"distance":102.58983574185787},"Brick House Cafe":{"closestBar":{"name":"Victory Hall and Parlor","address":"360 Ritch Street","city":"San Francisco","state":"CA","zip":"94107","lat":"37.778825","lng":"-122.3940289"},"distance":142.9136186014429},"Broadway Studios":{"closestBar":{"name":"The Cosmo Bar & Lounge","address":"440 Broadway","city":"San Francisco","state":"CA","zip":"94133","lat":"37.7983532","lng":"-122.4046718"},"distance":40.2057714376358},"Broken Record":{"closestBar":{"name":"Billiard Palacade","address":"5179 Mission Street","city":"San Francisco","state":"CA","zip":"94112","lat":"37.7157978","lng":"-122.4413135"},"distance":415.23022387656147},"Bruno's":{"closestBar":{"name":"Arabian Nights Restaurant","address":"2345 Mission Street","city":"San Francisco","state":"CA","zip":"94110","lat":"37.7595264","lng":"-122.4188031"},"distance":63.22165379759921},"Buck Tavern":{"closestBar":{"name":"Pause Wine Bar","address":"1666 Market Street","city":"San Francisco","state":"CA","zip":"94102","lat":"37.7735006","lng":"-122.421737"},"distance":50.75674421792029},"Buckshop Bar and Gameroom":{"closestBar":{"name":"Buckshot Bar and Gameroom","address":"3828 Geary Boulevard","city":"San Francisco","state":"CA","zip":"94118","lat":"37.781548","lng":"-122.460573"},"distance":26.607255803705055},"Buckshot Bar and Gameroom":{"closestBar":{"name":"Buckshop Bar and Gameroom","address":"3848 Geary Boulevard","city":"San Francisco","state":"CA","zip":"94118","lat":"37.7814258","lng":"-122.4608333"},"distance":26.607255803705055},"Buddha Lounge":{"closestBar":{"name":"Li Po Cocktail Lounge","address":"916 Grant Avenue","city":"San Francisco","state":"CA","zip":"94108","lat":"37.7954238","lng":"-122.4064344"},"distance":26.22577580890297},"Buena Vista":{"closestBar":{"name":"Fiddler's Green","address":"1333 Columbus Avenue","city":"San Francisco","state":"CA","zip":"94133","lat":"37.8065454","lng":"-122.419539"},"distance":109.23694462867545},"Buffalo Theory":{"closestBar":{"name":"The Cinch","address":"1723 Polk Street","city":"San Francisco","state":"CA","zip":"94109","lat":"37.7927563","lng":"-122.4214518"},"distance":18.85455016023763},"Bullitt":{"closestBar":{"name":"Cresta's Twenty Two Eleven Club","address":"2211 Polk Street","city":"San Francisco","state":"CA","zip":"94109","lat":"37.7971311","lng":"-122.4221693"},"distance":5.071237101988048},"Bus Stop":{"closestBar":{"name":"Steamed Sloth Inc","address":"1875 Union Street","city":"San Francisco","state":"CA","zip":"94123","lat":"37.797598","lng":"-122.4300489"},"distance":57.096780548559366},"Butter":{"closestBar":{"name":"Slim's","address":"333 11th Street","city":"San Francisco","state":"CA","zip":"94103","lat":"37.7715426","lng":"-122.4133157"},"distance":55.25558018037879},"Buzz Works Sports Tavern":{"closestBar":{"name":"Would You Believe","address":"4652 Geary Boulevard","city":"San Francisco","state":"CA","zip":"94118","lat":"37.7810583","lng":"-122.4695207"},"distance":63.87912508424032},"Cabin":{"closestBar":{"name":"Amelie","address":"1754 Polk Street","city":"San Francisco","state":"CA","zip":"94109","lat":"37.7931093","lng":"-122.4209725"},"distance":12.23129512221562},"Cable Car City Pub & Cafe":{"closestBar":{"name":"Good Care Inc","address":"34 Mason Street","city":"San Francisco","state":"CA","zip":"94102","lat":"37.7839519","lng":"-122.4090592"},"distance":26.134225114166675},"Cafe Divis":{"closestBar":{"name":"Greenhound","address":"298 Divisadero Street","city":"San Francisco","state":"CA","zip":"94117","lat":"37.7721319","lng":"-122.4369257"},"distance":112.7150651137907},"Cafe Flore":{"closestBar":{"name":"Lookout","address":"3600 16th Street","city":"San Francisco","state":"CA","zip":"94114","lat":"37.7643342","lng":"-122.433563"},"distance":67.26549751162392},"Cafe Majestic":{"closestBar":{"name":"Rentalpoboxes Club","address":"1445 Post Street","city":"San Francisco","state":"CA","zip":"94109","lat":"37.7861202","lng":"-122.4256674"},"distance":127.95656213975658},"Cafe Maria Restaurant":{"closestBar":{"name":"Tony Nik's Cafe","address":"1534 Stockton Street","city":"San Francisco","state":"CA","zip":"94133","lat":"37.8000496","lng":"-122.4088995"},"distance":8.272902542104998},"Cafe Meuse":{"closestBar":{"name":"Shanghai Kelly's","address":"2064 Polk Street","city":"San Francisco","state":"CA","zip":"94109","lat":"37.7958531","lng":"-122.4216"},"distance":276.7952297230253},"Cafe Mystique":{"closestBar":{"name":"Twin Peaks Tavern","address":"401 Castro Street","city":"San Francisco","state":"CA","zip":"94114","lat":"37.7622826","lng":"-122.4349365"},"distance":93.12138591572672},"Cafe Zoetrope":{"closestBar":{"name":"Grasslands","address":"905 Kearny Street","city":"San Francisco","state":"CA","zip":"94133","lat":"37.7963385","lng":"-122.4053377"},"distance":34.06330284527701},"California Wine Merchant":{"closestBar":{"name":"Boho","address":"3321 Steiner Street","city":"San Francisco","state":"CA","zip":"94123","lat":"37.8000326","lng":"-122.438117"},"distance":41.93195587006625},"Calzone's Pizza Cucina":{"closestBar":{"name":"Boboquivari's","address":"420 Columbus Avenue","city":"San Francisco","state":"CA","zip":"94133","lat":"37.7990468","lng":"-122.408133"},"distance":6.855629570207739},"Campanula Kitchen and Bar":{"closestBar":{"name":"Rogue Ales Public House","address":"673 Union Street","city":"San Francisco","state":"CA","zip":"94133","lat":"37.8000725","lng":"-122.4105724"},"distance":41.55404085209661},"Campus":{"closestBar":{"name":"The Tipsy Pig","address":"2231 Chestnut Street","city":"San Francisco","state":"CA","zip":"94123","lat":"37.8001359","lng":"-122.4400568"},"distance":13.042741455374843},"Cancholas Bar":{"closestBar":{"name":"Edible Excursions","address":"71 Cuvier Street","city":"San Francisco","state":"CA","zip":"94112","lat":"37.7339755","lng":"-122.4284318"},"distance":455.8443491622823},"Cantina":{"closestBar":{"name":"Bar 1915","address":"524 Sutter Street","city":"San Francisco","state":"CA","zip":"94102","lat":"37.789438","lng":"-122.4091998"},"distance":69.46720287953487},"Capurro's":{"closestBar":{"name":"Blue Mermaid","address":"471 Jefferson Street","city":"San Francisco","state":"CA","zip":"94109","lat":"37.8075005","lng":"-122.4201723"},"distance":38.185915248576755},"Casanova Lounge":{"closestBar":{"name":"Blondie's Bar and No Grill","address":"540 Valencia Street","city":"San Francisco","state":"CA","zip":"94110","lat":"37.764216","lng":"-122.4221214"},"distance":44.89775655999951},"Cat Club":{"closestBar":{"name":"F8 Nightclub & Bar","address":"1192 Folsom Street","city":"San Francisco","state":"CA","zip":"94103","lat":"37.77528969999999","lng":"-122.4101366"},"distance":20.694446648931542},"Causwells":{"closestBar":{"name":"Reed & Greenough","address":"3251 Scott Street","city":"San Francisco","state":"CA","zip":"94123","lat":"37.799838","lng":"-122.4413992"},"distance":69.75588835329293},"Cellars 360":{"closestBar":{"name":"The Pub","address":"851 Beach Street","city":"San Francisco","state":"CA","zip":"94109","lat":"37.8062216","lng":"-122.4227688"},"distance":69.98605860669579},"Cesar's Latin Palace":{"closestBar":{"name":"Smokestack","address":"2505 3rd Street","city":"San Francisco","state":"CA","zip":"94107","lat":"37.757722","lng":"-122.3879496"},"distance":672.1521111262723},"Chelsea Place":{"closestBar":{"name":"Bar Crudo","address":"603 Bush Street","city":"San Francisco","state":"CA","zip":"94108","lat":"37.7901463","lng":"-122.407427"},"distance":41.816447051066675},"Chief Sullivan's":{"closestBar":{"name":"Vieni Vieni Lucky Spot","address":"1431 Stockton Street","city":"San Francisco","state":"CA","zip":"94133","lat":"37.7989957","lng":"-122.4090795"},"distance":81.76853583492547},"China Town Business Pub Co":{"closestBar":{"name":"Trad'r Sam","address":"6150 Geary Boulevard","city":"San Francisco","state":"CA","zip":"94121","lat":"37.7803737","lng":"-122.4856604"},"distance":443.57213142024057},"Chowder Hut Grill":{"closestBar":{"name":"Alioto's","address":"8 Fishermans Wharf","city":"San Francisco","state":"CA","zip":"94133","lat":"37.8086803","lng":"-122.4161115"},"distance":45.40265385785444},"Cigar Bar & Grill":{"closestBar":{"name":"Bix Restaurant","address":"56 Gold Street","city":"San Francisco","state":"CA","zip":"94133","lat":"37.7968486","lng":"-122.4029681"},"distance":57.830495821726366},"Citrus Club":{"closestBar":{"name":"The Alembic","address":"1725 Haight Street","city":"San Francisco","state":"CA","zip":"94117","lat":"37.7693079","lng":"-122.4511505"},"distance":52.71644694802154},"City Beer Store":{"closestBar":{"name":"Mr. Smith's","address":"34 7th Street","city":"San Francisco","state":"CA","zip":"94103","lat":"37.7799809","lng":"-122.4122182"},"distance":166.48929975041287},"City Club":{"closestBar":{"name":"Slate","address":"2925 16th Street","city":"San Francisco","state":"CA","zip":"94103","lat":"37.765035","lng":"-122.418122"},"distance":9.320814310506636},"City Nights":{"closestBar":{"name":"Boss Nightclub","address":"750 Harrison Street","city":"San Francisco","state":"CA","zip":"94107","lat":"37.7819101","lng":"-122.3988305"},"distance":103.89752286796458},"Civic Restaurant & Bar":{"closestBar":{"name":"Ales Unlimited Basement","address":"222 Hyde Street","city":"San Francisco","state":"CA","zip":"94102","lat":"37.78295019999999","lng":"-122.415646"},"distance":265.1849449590602},"Cleriti Club":{"closestBar":{"name":"Zam Zam","address":"1633 Haight Street","city":"San Francisco","state":"CA","zip":"94117","lat":"37.769619","lng":"-122.449291"},"distance":162.10451928651563},"Cliff House":{"closestBar":{"name":"Beach Chalet Brewery & Restaurant","address":"1000 Great Highway","city":"San Francisco","state":"CA","zip":"94121","lat":"37.7694872","lng":"-122.5101792"},"distance":1057.149055011506},"Clock Bar":{"closestBar":{"name":"Eno","address":"320 Geary Street","city":"San Francisco","state":"CA","zip":"94102","lat":"37.78742099999999","lng":"-122.4086958"},"distance":39.00535398826378},"Clooney's Pub":{"closestBar":{"name":"Southend Grill 'N' Bar","address":"1499 Valencia Street","city":"San Francisco","state":"CA","zip":"94110","lat":"37.7490388","lng":"-122.4201442"},"distance":154.5629799575162},"Club Buster":{"closestBar":{"name":"Family Billiards","address":"2807 Geary Boulevard","city":"San Francisco","state":"CA","zip":"94118","lat":"37.781996","lng":"-122.4493941"},"distance":137.42013879471918},"Club Deluxe":{"closestBar":{"name":"Martin Macks","address":"1568 Haight Street","city":"San Francisco","state":"CA","zip":"94117","lat":"37.7701408","lng":"-122.448136"},"distance":96.87492659276722},"Club Kristi":{"closestBar":{"name":"Titanic","address":"841 Larkin Street","city":"San Francisco","state":"CA","zip":"94109","lat":"37.7858289","lng":"-122.4183209"},"distance":86.37111857254784},"Club Luxx":{"closestBar":{"name":"Club Omg","address":"43 6th Street","city":"San Francisco","state":"CA","zip":"94103","lat":"37.7818047","lng":"-122.4093351"},"distance":58.293343152658736},"Club Malibu":{"closestBar":{"name":"El Amigo","address":"3355 Mission Street","city":"San Francisco","state":"CA","zip":"94110","lat":"37.7429721","lng":"-122.4213948"},"distance":79.10823034107914},"Club Minibar-Downtown":{"closestBar":{"name":"Golden Gate Grill","address":"449 Powell Street","city":"San Francisco","state":"CA","zip":"94102","lat":"37.7890061","lng":"-122.4089132"},"distance":55.2484504068439},"Club Omg":{"closestBar":{"name":"Club Luxx","address":"60 6th Street","city":"San Francisco","state":"CA","zip":"94103","lat":"37.781318","lng":"-122.4095816"},"distance":58.293343152658736},"Cobb's Comedy Club":{"closestBar":{"name":"La Rocca's Corner","address":"957 Columbus Avenue","city":"San Francisco","state":"CA","zip":"94133","lat":"37.8031815","lng":"-122.4146277"},"distance":29.892676094115878},"Cockblock":{"closestBar":{"name":"Noir Lounge","address":"581 Hayes St","city":"San Francisco","state":"CA","zip":"94102","lat":"37.7773172","lng":"-122.419609"},"distance":164.45665459311735},"Coco's Bar":{"closestBar":{"name":"Pissed Off Pete's","address":"4528 Mission Street","city":"San Francisco","state":"CA","zip":"94112","lat":"37.7255834","lng":"-122.4345126"},"distance":55.10454630998687},"Coda":{"closestBar":{"name":"The Crafty Fox Ale House","address":"1700 Mission Street","city":"San Francisco","state":"CA","zip":"94103","lat":"37.7698262","lng":"-122.4204105"},"distance":10.02421067577221},"Coin-Op Game Room":{"closestBar":{"name":"Bar Basic","address":"510 Brannan Street","city":"San Francisco","state":"CA","zip":"94107","lat":"37.778271","lng":"-122.3971046"},"distance":136.42130359442345},"Comedy on the Square":{"closestBar":{"name":"Pandora Karaoke & Bar","address":"177 Eddy Street","city":"San Francisco","state":"CA","zip":"94102","lat":"37.783993","lng":"-122.4104021"},"distance":97.67373655434339},"Comet Club":{"closestBar":{"name":"Pe Yale","address":"3131 Fillmore Street","city":"San Francisco","state":"CA","zip":"94123","lat":"37.7984027","lng":"-122.435972"},"distance":21.19518085347193},"Concordia Argonaut":{"closestBar":{"name":"Tommy's Joynt","address":"1101 Geary Boulevard","city":"San Francisco","state":"CA","zip":"94109","lat":"37.785533","lng":"-122.4217955"},"distance":108.90379140305934},"Cotters Corner":{"closestBar":{"name":"Our Place Bar","address":"4461 Mission Street","city":"San Francisco","state":"CA","zip":"94112","lat":"37.7268335","lng":"-122.4330384"},"distance":54.69984403106194},"Cozmo's Corner Grill":{"closestBar":{"name":"Horseshoe Tavern","address":"2024 Chestnut Street","city":"San Francisco","state":"CA","zip":"94123","lat":"37.8009054","lng":"-122.4369381"},"distance":55.27990909739075},"Craft On Draught":{"closestBar":{"name":"Barney's Gourmet Hamburgers","address":"4138 24th Street","city":"San Francisco","state":"CA","zip":"94114","lat":"37.7514607","lng":"-122.4350231"},"distance":161.79386154844292},"Cresta's Twenty Two Eleven Club":{"closestBar":{"name":"Bullitt","address":"2209 Polk Street","city":"San Francisco","state":"CA","zip":"94109","lat":"37.7971043","lng":"-122.422216"},"distance":5.071237101988048},"Crystal Jade Jiang Nan":{"closestBar":{"name":"Green Bar","address":"3 Embarcadero Center","city":"San Francisco","state":"CA","zip":"94111","lat":"37.7948167","lng":"-122.397348"},"distance":126.32144413714225},"Cyprus Grill":{"closestBar":{"name":"Four Deuces","address":"2319 Taraval Street","city":"San Francisco","state":"CA","zip":"94116","lat":"37.7421689","lng":"-122.4911714"},"distance":1809.101110533902},"Dada Sf Studio":{"closestBar":{"name":"Pied Piper Bar & Grill","address":"2 New Montgomery Street","city":"San Francisco","state":"CA","zip":"94105","lat":"37.7884503","lng":"-122.4020449"},"distance":103.36891095286087},"Dalva":{"closestBar":{"name":"Delirium Cocktails","address":"3139 16th Street","city":"San Francisco","state":"CA","zip":"94103","lat":"37.764726","lng":"-122.4227528"},"distance":26.421316457467},"Danny Coyle's":{"closestBar":{"name":"Black Sands","address":"701 Haight Street","city":"San Francisco","state":"CA","zip":"94117","lat":"37.771455","lng":"-122.433855"},"distance":73.2543919571607},"Dark Horse Inn":{"closestBar":{"name":"Broken Record","address":"1166 Geneva Avenue","city":"San Francisco","state":"CA","zip":"94112","lat":"37.7143337","lng":"-122.4369709"},"distance":360.4534685377813},"Dave's":{"closestBar":{"name":"Local Edition","address":"691 Market Street","city":"San Francisco","state":"CA","zip":"94105","lat":"37.787588","lng":"-122.4031888"},"distance":44.39029966197332},"Dear Mom":{"closestBar":{"name":"Double Play Bar & Grill","address":"2401 16th Street","city":"San Francisco","state":"CA","zip":"94103","lat":"37.7654995","lng":"-122.4106267"},"distance":240.47531163695126},"Delirium Cocktails":{"closestBar":{"name":"The Monk's Kettle","address":"3141 16th Street","city":"San Francisco","state":"CA","zip":"94103","lat":"37.7647206","lng":"-122.422986"},"distance":20.50781219369341},"Dell'uva":{"closestBar":{"name":"Lucita's Niteclub","address":"3247 Mission Street","city":"San Francisco","state":"CA","zip":"94110","lat":"37.7447868","lng":"-122.4201584"},"distance":36.02742240985974},"Dimples":{"closestBar":{"name":"Pagoda","address":"1704 Post Street","city":"San Francisco","state":"CA","zip":"94115","lat":"37.7856202","lng":"-122.4302123"},"distance":17.272277348178584},"Dirty Trix Saloon":{"closestBar":{"name":"540 Club","address":"540 Clement Street","city":"San Francisco","state":"CA","zip":"94118","lat":"37.7831477","lng":"-122.4651785"},"distance":123.6466569406361},"District Wine Lounge":{"closestBar":{"name":"Ritch Street Supper Club","address":"330 Ritch Street","city":"San Francisco","state":"CA","zip":"94107","lat":"37.7788625","lng":"-122.3938303"},"distance":51.59485375365012},"Diva Karaoke":{"closestBar":{"name":"Buck Tavern","address":"1655 Market Street","city":"San Francisco","state":"CA","zip":"94103","lat":"37.773241","lng":"-122.421262"},"distance":139.30107723676016},"Diva's":{"closestBar":{"name":"Jackalope","address":"1092 Post Street","city":"San Francisco","state":"CA","zip":"94109","lat":"37.7870162","lng":"-122.4197441"},"distance":49.920052615963975},"Divisadero Sports Bar":{"closestBar":{"name":"The Fishbowl Bar & Grill","address":"1854 Divisadero Street","city":"San Francisco","state":"CA","zip":"94115","lat":"37.7869217","lng":"-122.4400223"},"distance":98.40735552776778},"DNA Lounge":{"closestBar":{"name":"Butter","address":"354 11th Street","city":"San Francisco","state":"CA","zip":"94103","lat":"37.7710462","lng":"-122.4133446"},"distance":64.48374009493075},"Dobbs Ferry Restaurant":{"closestBar":{"name":"Fig & Thistle","address":"313 Ivy Street","city":"San Francisco","state":"CA","zip":"94102","lat":"37.77722929999999","lng":"-122.4233794"},"distance":26.990560975048172},"Doma Sushi Bar":{"closestBar":{"name":"Zita Wine Bar","address":"2862 24th Street","city":"San Francisco","state":"CA","zip":"94110","lat":"37.7528847","lng":"-122.409598"},"distance":606.2827277587708},"Double Play Bar & Grill":{"closestBar":{"name":"Dear Mom","address":"2700 16th Street","city":"San Francisco","state":"CA","zip":"94103","lat":"37.765601","lng":"-122.4133594"},"distance":240.47531163695126},"Double Play Restaurant":{"closestBar":{"name":"Red Forest Whisper","address":"535 Florida Street","city":"San Francisco","state":"CA","zip":"94110","lat":"37.7624942","lng":"-122.4109542"},"distance":335.4118657712245},"Dovre Club":{"closestBar":{"name":"Toad's Food & Drink","address":"1499 Valencia Street","city":"San Francisco","state":"CA","zip":"94110","lat":"37.7490388","lng":"-122.4201442"},"distance":38.75595870677499},"Dr's":{"closestBar":{"name":"Bottoms Up Bar & Lounge","address":"4704 Mission Street","city":"San Francisco","state":"CA","zip":"94112","lat":"37.7229633","lng":"-122.4362963"},"distance":262.7911069566571},"Dragon Lounge":{"closestBar":{"name":"Ninki Sushi Bar & Restaurant","address":"1439 Taraval Street","city":"San Francisco","state":"CA","zip":"94116","lat":"37.7425926","lng":"-122.4817594"},"distance":71.77677636895203},"Duffy's Irish Pub":{"closestBar":{"name":"Bitter Badger","address":"1548 California Street","city":"San Francisco","state":"CA","zip":"94109","lat":"37.7908975","lng":"-122.4199171"},"distance":72.42881045328146},"Durty Nelly's":{"closestBar":{"name":"The Taco Shop at Underdogs","address":"1824 Irving Street","city":"San Francisco","state":"CA","zip":"94122","lat":"37.7638176","lng":"-122.4777046"},"distance":471.90827319439506},"Dwellaware":{"closestBar":{"name":"Bar 888","address":"888 Howard Street","city":"San Francisco","state":"CA","zip":"94103","lat":"37.7822079","lng":"-122.4048266"},"distance":193.00591975368906},"E & O Kitchen and Bar":{"closestBar":{"name":"Rouge et Blanc","address":"334 Grant Avenue","city":"San Francisco","state":"CA","zip":"94108","lat":"37.7902023","lng":"-122.4054049"},"distance":66.44093809608974},"E Z 5 Inc":{"closestBar":{"name":"R & G Lounge","address":"631 Kearny Street","city":"San Francisco","state":"CA","zip":"94108","lat":"37.7940903","lng":"-122.4049254"},"distance":47.000324480205535},"Eastside West Restaurant & Bar":{"closestBar":{"name":"White Rabbit","address":"3138 Fillmore Street","city":"San Francisco","state":"CA","zip":"94123","lat":"37.7987021","lng":"-122.4355986"},"distance":24.09697470036137},"Eddie Rickenbacker's":{"closestBar":{"name":"Steffs","address":"141 2nd Street","city":"San Francisco","state":"CA","zip":"94105","lat":"37.7876059","lng":"-122.3989719"},"distance":7.058158490968902},"Edible Excursions":{"closestBar":{"name":"Cancholas Bar","address":"3775 Mission Street","city":"San Francisco","state":"CA","zip":"94110","lat":"37.7362878","lng":"-122.4241514"},"distance":455.8443491622823},"Edinburgh Castle":{"closestBar":{"name":"Hanaro","address":"939 Geary Street","city":"San Francisco","state":"CA","zip":"94109","lat":"37.7859167","lng":"-122.4188645"},"distance":32.45968942669251},"El Amigo":{"closestBar":{"name":"Club Malibu","address":"3395 Mission Street","city":"San Francisco","state":"CA","zip":"94110","lat":"37.7423116","lng":"-122.4217291"},"distance":79.10823034107914},"El Farolito Soccer Club":{"closestBar":{"name":"Obispo","address":"3266 24th Street","city":"San Francisco","state":"CA","zip":"94110","lat":"37.7524495","lng":"-122.417833"},"distance":41.02891112964926},"El Toro Night Club":{"closestBar":{"name":"New Judnich's","address":"2888 San Bruno Avenue","city":"San Francisco","state":"CA","zip":"94134","lat":"37.72536220000001","lng":"-122.4029661"},"distance":624.2807150452811},"El Trebol Bar":{"closestBar":{"name":"Make-Out Room","address":"3225 22nd Street","city":"San Francisco","state":"CA","zip":"94110","lat":"37.7552346","lng":"-122.419362"},"distance":173.65264756647608},"Elbo Room":{"closestBar":{"name":"The Sycamore","address":"2140 Mission Street","city":"San Francisco","state":"CA","zip":"94110","lat":"37.7627643","lng":"-122.419727"},"distance":150.8370104457997},"Elixir":{"closestBar":{"name":"Abv","address":"3174 16th Street","city":"San Francisco","state":"CA","zip":"94103","lat":"37.765043","lng":"-122.4235763"},"distance":65.38335625632928},"Encore Karaoke Lounge":{"closestBar":{"name":"Duffy's Irish Pub","address":"1451 Larkin Street","city":"San Francisco","state":"CA","zip":"94109","lat":"37.7914518","lng":"-122.4194842"},"distance":78.12710863829999},"Eno":{"closestBar":{"name":"Clock Bar","address":"335 Powell Street","city":"San Francisco","state":"CA","zip":"94102","lat":"37.7877258","lng":"-122.4084761"},"distance":39.00535398826378},"Etall":{"closestBar":{"name":"The Greens Sports Bar","address":"2239 Polk Street","city":"San Francisco","state":"CA","zip":"94109","lat":"37.7975626","lng":"-122.4223694"},"distance":15.660236830453004},"Etcetera Wine Bar":{"closestBar":{"name":"The Chapel","address":"777 Valencia Street","city":"San Francisco","state":"CA","zip":"94110","lat":"37.7605088","lng":"-122.4212203"},"distance":23.44908236055423},"F8 Nightclub & Bar":{"closestBar":{"name":"Cat Club","address":"1190 Folsom Street","city":"San Francisco","state":"CA","zip":"94103","lat":"37.775454","lng":"-122.410026"},"distance":20.694446648931542},"Family Billiards":{"closestBar":{"name":"Pig and Whistle","address":"2801 Geary Boulevard","city":"San Francisco","state":"CA","zip":"94118","lat":"37.7819658","lng":"-122.4491606"},"distance":20.793551744881764},"Fang":{"closestBar":{"name":"Ame Restaurant","address":"689 Mission Street","city":"San Francisco","state":"CA","zip":"94105","lat":"37.7862394","lng":"-122.4016405"},"distance":162.91142962138673},"Ferry Plaza Wine Merchant":{"closestBar":{"name":"Handbags-Info Club","address":"1 Market Street","city":"San Francisco","state":"CA","zip":"94105","lat":"37.7941843","lng":"-122.3948638"},"distance":206.58372737796196},"Festa Wine & Cocktail Lounge":{"closestBar":{"name":"Izakaya Kou","address":"1560 Fillmore Street","city":"San Francisco","state":"CA","zip":"94115","lat":"37.7841444","lng":"-122.4325818"},"distance":134.7128094257808},"Fiddler's Green":{"closestBar":{"name":"Parlor","address":"2801 Leavenworth Street","city":"San Francisco","state":"CA","zip":"94133","lat":"37.8070209","lng":"-122.4193841"},"distance":54.59637351395061},"Fig & Thistle":{"closestBar":{"name":"Dobbs Ferry Restaurant","address":"406 Hayes Street","city":"San Francisco","state":"CA","zip":"94102","lat":"37.7770072","lng":"-122.4232555"},"distance":26.990560975048172},"Final Final":{"closestBar":{"name":"Presidio Social Club","address":"563 Ruger Street","city":"San Francisco","state":"CA","zip":"94129","lat":"37.7973386","lng":"-122.4484327"},"distance":272.2154397569261},"Finnegans Wake":{"closestBar":{"name":"Kezar Bar & Restaurant","address":"900 Cole Street","city":"San Francisco","state":"CA","zip":"94117","lat":"37.7656962","lng":"-122.449768"},"distance":51.435610160472756},"Fire Fly Sports Bar":{"closestBar":{"name":"Kama Lounge Inc","address":"2555 Judah Street","city":"San Francisco","state":"CA","zip":"94122","lat":"37.7609486","lng":"-122.4895545"},"distance":840.5226120204949},"Fireside":{"closestBar":{"name":"Yancy's Saloon","address":"734 Irving Street","city":"San Francisco","state":"CA","zip":"94122","lat":"37.764243","lng":"-122.465875"},"distance":129.04459229698924},"First Crush Restaurant & Wine Bar":{"closestBar":{"name":"Johnny Foley's Irish House","address":"243 O'Farrell Street","city":"San Francisco","state":"CA","zip":"94102","lat":"37.78599310000001","lng":"-122.4086873"},"distance":49.51959553072723},"Fish & Farm":{"closestBar":{"name":"Bar 333","address":"333 Battery Street","city":"San Francisco","state":"CA","zip":"94111","lat":"37.79467289999999","lng":"-122.400844"},"distance":48.21899334404106},"Five Hundred Club":{"closestBar":{"name":"ABV","address":"3174 16th Street","city":"San Francisco","state":"CA","zip":"94103","lat":"37.765043","lng":"-122.4235763"},"distance":230.9362860610864},"Fly Trap":{"closestBar":{"name":"Red Dog Restaurant","address":"303 2nd Street","city":"San Francisco","state":"CA","zip":"94107","lat":"37.7856757","lng":"-122.3958433"},"distance":122.4802029895016},"Foreign Cinema":{"closestBar":{"name":"Myriad Gastropub","address":"2491 Mission Street","city":"San Francisco","state":"CA","zip":"94110","lat":"37.7572679","lng":"-122.418732"},"distance":102.70462951080988},"Forgery":{"closestBar":{"name":"Diva Karaoke","address":"20 12th Street","city":"San Francisco","state":"CA","zip":"94103","lat":"37.7739974","lng":"-122.4199986"},"distance":219.40556964933964},"Four Deuces":{"closestBar":{"name":"The Spot Restaurant","address":"2325 Taraval Street","city":"San Francisco","state":"CA","zip":"94116","lat":"37.7421809","lng":"-122.4911737"},"distance":1.3495782551050288},"Friends Bar":{"closestBar":{"name":"Tropi-Gala","address":"358 Ocean Avenue","city":"San Francisco","state":"CA","zip":"94112","lat":"37.7231137","lng":"-122.4441323"},"distance":1023.3660751797152},"Gallery Lounge On Brannan":{"closestBar":{"name":"Platinum Players Club","address":"340 Townsend Street","city":"San Francisco","state":"CA","zip":"94107","lat":"37.7764835","lng":"-122.3961974"},"distance":214.1567594246837},"Garaje Sf":{"closestBar":{"name":"Restaurant Chee & Water Bar","address":"133 Stillman Street","city":"San Francisco","state":"CA","zip":"94107","lat":"37.7809623","lng":"-122.3970239"},"distance":126.85669708676747},"Gingers":{"closestBar":{"name":"Topsy's Fun House","address":"260 Kearny Street","city":"San Francisco","state":"CA","zip":"94104","lat":"37.7906165","lng":"-122.4037096"},"distance":17.324203865898614},"Gino & Carlo":{"closestBar":{"name":"Cafe Maria Restaurant","address":"1548 Stockton Street","city":"San Francisco","state":"CA","zip":"94133","lat":"37.800124","lng":"-122.4088995"},"distance":68.9878118947728},"Giordanos Bros.":{"closestBar":{"name":"Morak Lounge","address":"3126 16th Street","city":"San Francisco","state":"CA","zip":"94103","lat":"37.7650239","lng":"-122.4226294"},"distance":27.433283530831574},"Gold Mirror":{"closestBar":{"name":"Dragon Lounge","address":"1355 Taraval Street","city":"San Francisco","state":"CA","zip":"94116","lat":"37.7427307","lng":"-122.480962"},"distance":542.8858190622962},"Golden Gate Club":{"closestBar":{"name":"Sessions at the Presidio","address":"1 Letterman Drive","city":"San Francisco","state":"CA","zip":"94129","lat":"37.798845","lng":"-122.4493378"},"distance":1082.479705350804},"Golden Gate Grill":{"closestBar":{"name":"Golden Gate Tap Room","address":"525 Sutter Street","city":"San Francisco","state":"CA","zip":"94102","lat":"37.788933","lng":"-122.4089565"},"distance":8.974841201650937},"Golden Gate Tap Room":{"closestBar":{"name":"Lizzie's Starlight","address":"450 Powell Street","city":"San Francisco","state":"CA","zip":"94102","lat":"37.7890363","lng":"-122.4083445"},"distance":54.99207849671353},"Good Care Inc":{"closestBar":{"name":"Cable Car City Pub & Cafe","address":"1 Hallidie Plaza","city":"San Francisco","state":"CA","zip":"94102","lat":"37.78412489999999","lng":"-122.4088579"},"distance":26.134225114166675},"Gotham Club":{"closestBar":{"name":"Pedro's Cantina","address":"128 King Street","city":"San Francisco","state":"CA","zip":"94107","lat":"37.7795096","lng":"-122.3907097"},"distance":121.41849048702788},"Grant & Green Saloon":{"closestBar":{"name":"Bocce Cafe","address":"478 Green Street","city":"San Francisco","state":"CA","zip":"94133","lat":"37.7998525","lng":"-122.4072593"},"distance":38.359095861950465},"Grasslands":{"closestBar":{"name":"Z & Y Bistro","address":"606 Jackson Street","city":"San Francisco","state":"CA","zip":"94133","lat":"37.7963745","lng":"-122.4055142"},"distance":16.016573937164956},"Gravity":{"closestBar":{"name":"Bin 38","address":"3232 Scott Street","city":"San Francisco","state":"CA","zip":"94123","lat":"37.7997516","lng":"-122.4409183"},"distance":43.33104888739068},"Great American Music Hall":{"closestBar":{"name":"O'Farrell Theatre","address":"895 O'Farrell Street","city":"San Francisco","state":"CA","zip":"94109","lat":"37.7847458","lng":"-122.4192392"},"distance":39.015520318859366},"Green Bar":{"closestBar":{"name":"Blanc et Rouge","address":"2 Embarcadero Center","city":"San Francisco","state":"CA","zip":"94111","lat":"37.7949888","lng":"-122.3986798"},"distance":118.57605088917367},"Greenhound":{"closestBar":{"name":"Cafe Divis","address":"359 Divisadero Street","city":"San Francisco","state":"CA","zip":"94117","lat":"37.7730052","lng":"-122.4375768"},"distance":112.7150651137907},"Halberstadt Fencers' Club":{"closestBar":{"name":"Primetime Sportsbar & Grill","address":"1810 Clement Street","city":"San Francisco","state":"CA","zip":"94121","lat":"37.7824201","lng":"-122.4787632"},"distance":363.60489687009965},"Halcyon":{"closestBar":{"name":"Bergerac","address":"316 11th Street","city":"San Francisco","state":"CA","zip":"94103","lat":"37.771391","lng":"-122.413852"},"distance":10.159732546262473},"Halu":{"closestBar":{"name":"Steins","address":"731 Clement Street","city":"San Francisco","state":"CA","zip":"94118","lat":"37.7826521","lng":"-122.4671797"},"distance":64.23564274594956},"Hamburger Mary's":{"closestBar":{"name":"Swirl On Castro","address":"572 Castro Street","city":"San Francisco","state":"CA","zip":"94114","lat":"37.7597549","lng":"-122.4352017"},"distance":59.710293519215725},"Hanaro":{"closestBar":{"name":"Edinburgh Castle","address":"950 Geary Street","city":"San Francisco","state":"CA","zip":"94109","lat":"37.7861924","lng":"-122.4189859"},"distance":32.45968942669251},"Handbags-Info Club":{"closestBar":{"name":"Americano","address":"8 Mission Street","city":"San Francisco","state":"CA","zip":"94105","lat":"37.7936821","lng":"-122.3934093"},"distance":139.4717478769306},"Happy Lounge":{"closestBar":{"name":"The Plough & Stars","address":"116 Clement Street","city":"San Francisco","state":"CA","zip":"94118","lat":"37.7833917","lng":"-122.4605497"},"distance":282.971376014226},"Hard Water":{"closestBar":{"name":"Waterfront Restaurant","address":"7 The Embarcadero","city":"San Francisco","state":"CA","zip":"94111","lat":"37.799346","lng":"-122.395618"},"distance":156.8712780015477},"Hardwood Bar & Smokery":{"closestBar":{"name":"One Project","address":"251 Rhode Island Street","city":"San Francisco","state":"CA","zip":"94103","lat":"37.766538","lng":"-122.4023928"},"distance":467.9461023059503},"Harper & Rye":{"closestBar":{"name":"Pancho's Salsa Bar & Grill","address":"1639 Polk Street","city":"San Francisco","state":"CA","zip":"94109","lat":"37.7919986","lng":"-122.4212535"},"distance":26.491325060429286},"Harrington's Bar & Grill":{"closestBar":{"name":"Punch Line Comedy Club","address":"444 Battery Street","city":"San Francisco","state":"CA","zip":"94111","lat":"37.795486","lng":"-122.4001359"},"distance":179.24456689358175},"Harrington's Harry Pub":{"closestBar":{"name":"Civic Restaurant & Bar","address":"272 McAllister Street","city":"San Francisco","state":"CA","zip":"94102","lat":"37.780678","lng":"-122.4165625"},"distance":183.64758201729273},"Harry's Bar":{"closestBar":{"name":"Wine Jar","address":"1870 Fillmore Street","city":"San Francisco","state":"CA","zip":"94115","lat":"37.7867544","lng":"-122.4333052"},"distance":178.13395154710727},"Harvey's":{"closestBar":{"name":"Badlands","address":"4121 18th Street","city":"San Francisco","state":"CA","zip":"94114","lat":"37.7607065","lng":"-122.4354659"},"distance":23.47466815587218},"Hawaii West":{"closestBar":{"name":"Rosewood","address":"732 Broadway","city":"San Francisco","state":"CA","zip":"94133","lat":"37.7977472","lng":"-122.4091852"},"distance":70.08838534803003},"Hawthorn":{"closestBar":{"name":"Dada Sf Studio","address":"65 Post Street","city":"San Francisco","state":"CA","zip":"94104","lat":"37.7888479","lng":"-122.4031082"},"distance":141.11266343632926},"Hearth Bar":{"closestBar":{"name":"The Girls Lounge","address":"4717 Geary Boulevard","city":"San Francisco","state":"CA","zip":"94118","lat":"37.780577","lng":"-122.4699467"},"distance":15.72370453931544},"Hemlock Tavern":{"closestBar":{"name":"Rusted Mule","address":"1217 Sutter Street","city":"San Francisco","state":"CA","zip":"94109","lat":"37.7874672","lng":"-122.4204681"},"distance":20.338105375206343},"Hi Dive":{"closestBar":{"name":"Palomino","address":"345 Spear Street","city":"San Francisco","state":"CA","zip":"94105","lat":"37.7899545","lng":"-122.389913"},"distance":343.62662195098966},"Hi-Fi Lounge":{"closestBar":{"name":"Jaxson","address":"3231 Fillmore Street","city":"San Francisco","state":"CA","zip":"94123","lat":"37.7994788","lng":"-122.4362179"},"distance":25.868089418059302},"Hideout":{"closestBar":{"name":"Giordanos Bros.","address":"3108 16th Street","city":"San Francisco","state":"CA","zip":"94103","lat":"37.765083","lng":"-122.4223264"},"distance":47.267856245239884},"Hillstone":{"closestBar":{"name":"Pier 23 Cafe","address":"Pier 23 The Embarcadero","city":"San Francisco","state":"CA","zip":"94111","lat":"37.8033934","lng":"-122.4008661"},"distance":476.7019782596544},"Hobson's Choice Bar":{"closestBar":{"name":"Club Deluxe","address":"1511 Haight Street","city":"San Francisco","state":"CA","zip":"94117","lat":"37.76976860000001","lng":"-122.4471395"},"distance":135.31251065595575},"Hockey Haven":{"closestBar":{"name":"Sapoten","address":"3420 Balboa Street","city":"San Francisco","state":"CA","zip":"94121","lat":"37.7759183","lng":"-122.4956456"},"distance":193.44627789651582},"Hog and Rocks":{"closestBar":{"name":"Beauty Bar","address":"2299 Mission Street","city":"San Francisco","state":"CA","zip":"94110","lat":"37.7603652","lng":"-122.4190216"},"distance":82.19067469681715},"Hong Kong Lounge":{"closestBar":{"name":"Gold Mirror","address":"800 Taraval Street","city":"San Francisco","state":"CA","zip":"94116","lat":"37.7433015","lng":"-122.4748302"},"distance":670.1662145098194},"Hong Kong Lounge II":{"closestBar":{"name":"Internos Wine Cafe","address":"3240 Geary Boulevard","city":"San Francisco","state":"CA","zip":"94118","lat":"37.7818633","lng":"-122.4539139"},"distance":43.739676270544486},"Hookah SF":{"closestBar":{"name":"Jasper's Corner Tap and Kitchen","address":"401 Taylor Street","city":"San Francisco","state":"CA","zip":"94102","lat":"37.7861517","lng":"-122.4116792"},"distance":33.80717546750177},"Horizon":{"closestBar":{"name":"Naked Lunch","address":"504 Broadway","city":"San Francisco","state":"CA","zip":"94133","lat":"37.798165","lng":"-122.4056481"},"distance":22.341699489624283},"Horseshoe Tavern":{"closestBar":{"name":"Cozmo's Corner Grill","address":"2001 Chestnut Street","city":"San Francisco","state":"CA","zip":"94123","lat":"37.8006268","lng":"-122.436417"},"distance":55.27990909739075},"Hotel Biron":{"closestBar":{"name":"Octavia Lounge","address":"1772 Market Street","city":"San Francisco","state":"CA","zip":"94102","lat":"37.7724004","lng":"-122.4230747"},"distance":157.23582448014213},"House Of Shields":{"closestBar":{"name":"Atlas Tap Room","address":"606 Mission Street","city":"San Francisco","state":"CA","zip":"94105","lat":"37.7879523","lng":"-122.4002209"},"distance":102.02007074750541},"Hyde-Out":{"closestBar":{"name":"Liquid Gold","address":"1040 Hyde Street","city":"San Francisco","state":"CA","zip":"94109","lat":"37.7906032","lng":"-122.4171121"},"distance":34.449819715742066},"India Curry House":{"closestBar":{"name":"Bimbo's 365 Club","address":"1025 Columbus Avenue","city":"San Francisco","state":"CA","zip":"94133","lat":"37.8036989","lng":"-122.4156675"},"distance":61.73095178023479},"Inovino":{"closestBar":{"name":"Finnegans Wake","address":"937 Cole Street","city":"San Francisco","state":"CA","zip":"94117","lat":"37.7652969","lng":"-122.4500634"},"distance":72.35889775566764},"International Sports Club":{"closestBar":{"name":"India Curry House","address":"1040 Columbus Avenue","city":"San Francisco","state":"CA","zip":"94133","lat":"37.8041563","lng":"-122.4152693"},"distance":29.11760758473375},"Internos Wine Cafe":{"closestBar":{"name":"Hong Kong Lounge II","address":"3300 Geary Boulevard","city":"San Francisco","state":"CA","zip":"94118","lat":"37.781865","lng":"-122.4544116"},"distance":43.739676270544486},"Irving Pizza":{"closestBar":{"name":"The Outsiders","address":"894 Geary Street","city":"San Francisco","state":"CA","zip":"94109","lat":"37.7863512","lng":"-122.4180333"},"distance":48.982694177255304},"Izakaya Kou":{"closestBar":{"name":"Origin","address":"1538 Fillmore Street","city":"San Francisco","state":"CA","zip":"94115","lat":"37.7838889","lng":"-122.432524"},"distance":28.86081172355121},"Jackalope":{"closestBar":{"name":"Blur","address":"1121 Polk Street","city":"San Francisco","state":"CA","zip":"94109","lat":"37.7872025","lng":"-122.4201382"},"distance":40.354958297227114},"Jasper's Corner Tap and Kitchen":{"closestBar":{"name":"Hookah SF","address":"419 O'Farrell Street","city":"San Francisco","state":"CA","zip":"94102","lat":"37.7858546","lng":"-122.4117609"},"distance":33.80717546750177},"Jaxson":{"closestBar":{"name":"Hi-Fi Lounge","address":"2125 Lombard Street","city":"San Francisco","state":"CA","zip":"94123","lat":"37.79959590000001","lng":"-122.4364723"},"distance":25.868089418059302},"Jester's Restaurant & Lounge":{"closestBar":{"name":"Dave's","address":"29 3rd Street","city":"San Francisco","state":"CA","zip":"94103","lat":"37.7872399","lng":"-122.4029415"},"distance":72.70221002151428},"Jillian's":{"closestBar":{"name":"Tabletop Tap House","address":"175 4th Street","city":"San Francisco","state":"CA","zip":"94103","lat":"37.78383609999999","lng":"-122.4030033"},"distance":49.434158359439124},"Johnny Foley's Irish House":{"closestBar":{"name":"First Crush Restaurant & Wine Bar","address":"101 Cyril Magnin Street","city":"San Francisco","state":"CA","zip":"94102","lat":"37.7855776","lng":"-122.4088901"},"distance":49.51959553072723},"Jones":{"closestBar":{"name":"Pineapple Bistro & Bar","address":"580 Geary Street","city":"San Francisco","state":"CA","zip":"94102","lat":"37.7869422","lng":"-122.4129982"},"distance":23.175517153172873},"Kama Lounge Inc":{"closestBar":{"name":"Durty Nelly's","address":"2328 Irving Street","city":"San Francisco","state":"CA","zip":"94122","lat":"37.7634711","lng":"-122.4830551"},"distance":636.475058078386},"Kate O'Brien's Irish Bar & Grill":{"closestBar":{"name":"Eddie Rickenbacker's","address":"133 2nd Street","city":"San Francisco","state":"CA","zip":"94105","lat":"37.7876628","lng":"-122.3990075"},"distance":148.85065327764102},"Kava Lounge Sf":{"closestBar":{"name":"Bar 821","address":"821 Divisadero Street","city":"San Francisco","state":"CA","zip":"94117","lat":"37.777211","lng":"-122.438483"},"distance":84.84957487951056},"Kells Irish Restaurant & Bar":{"closestBar":{"name":"Cafe Zoetrope","address":"916 Kearny Street","city":"San Francisco","state":"CA","zip":"94133","lat":"37.7965367","lng":"-122.4050421"},"distance":85.0503607742884},"Ken Ken Ramen":{"closestBar":{"name":"West Burger N More","address":"2240 Mission Street","city":"San Francisco","state":"CA","zip":"94110","lat":"37.7611238","lng":"-122.4195833"},"distance":120.2292854463475},"Kezar Bar & Restaurant":{"closestBar":{"name":"Inovino","address":"108-B Carl Street","city":"San Francisco","state":"CA","zip":"94117","lat":"37.76591","lng":"-122.4503393"},"distance":55.56132424654023},"Kezar Pub":{"closestBar":{"name":"Murio's Trophy Room","address":"1811 Haight Street","city":"San Francisco","state":"CA","zip":"94117","lat":"37.7691469","lng":"-122.4521865"},"distance":154.1108008560892},"Kilowatt":{"closestBar":{"name":"Dalva","address":"3121 16th Street","city":"San Francisco","state":"CA","zip":"94103","lat":"37.7646713","lng":"-122.4224603"},"distance":82.06119807749147},"Kimocki Inc":{"closestBar":{"name":"Dimples","address":"1700 Post Street","city":"San Francisco","state":"CA","zip":"94115","lat":"37.7857557","lng":"-122.4301162"},"distance":17.935879448317536},"Knockout":{"closestBar":{"name":"Dell'uva","address":"3235 Mission Street","city":"San Francisco","state":"CA","zip":"94110","lat":"37.7450537","lng":"-122.4199261"},"distance":11.061553520952492},"L'Olivier":{"closestBar":{"name":"5A5 Steak Lounge","address":"244 Jackson Street","city":"San Francisco","state":"CA","zip":"94111","lat":"37.7970266","lng":"-122.4002792"},"distance":164.13721536816993},"La Folie":{"closestBar":{"name":"Mazcalito Bar & Restaurant","address":"2323 Polk Street","city":"San Francisco","state":"CA","zip":"94109","lat":"37.7981647","lng":"-122.4224969"},"distance":38.39372768969565},"La Movida":{"closestBar":{"name":"Pops","address":"2800 24th Street","city":"San Francisco","state":"CA","zip":"94110","lat":"37.7530749","lng":"-122.4083707"},"distance":447.6247463828374},"La Rocca's Corner":{"closestBar":{"name":"Cobb's Comedy Club","address":"915 Columbus Avenue","city":"San Francisco","state":"CA","zip":"94133","lat":"37.802989","lng":"-122.4143902"},"distance":29.892676094115878},"La Stazione Coffee & Wine Bar":{"closestBar":{"name":"Third Rail","address":"628 20th Street","city":"San Francisco","state":"CA","zip":"94107","lat":"37.7606934","lng":"-122.3881503"},"distance":556.9712704387963},"La Trappe":{"closestBar":{"name":"Campanula Kitchen and Bar","address":"701 Union Street","city":"San Francisco","state":"CA","zip":"94133","lat":"37.8000413","lng":"-122.4110437"},"distance":283.56553353341235},"Laslzo":{"closestBar":{"name":"El Trebol Bar","address":"3149 22nd Street","city":"San Francisco","state":"CA","zip":"94110","lat":"37.7553763","lng":"-122.4173949"},"distance":194.8551065431977},"Last Call":{"closestBar":{"name":"Moby Dick","address":"4049 18th Street","city":"San Francisco","state":"CA","zip":"94114","lat":"37.7608266","lng":"-122.4336948"},"distance":115.05191100279221},"Last Drop Tavern":{"closestBar":{"name":"Chelsea Place","address":"641 Bush Street","city":"San Francisco","state":"CA","zip":"94108","lat":"37.7901727","lng":"-122.4079017"},"distance":61.083297941321334},"Latin American Club":{"closestBar":{"name":"Foreign Cinema","address":"2534 Mission Street","city":"San Francisco","state":"CA","zip":"94110","lat":"37.7564149","lng":"-122.4191801"},"distance":171.51220776535249},"Laurel Court Restaurant & Bar":{"closestBar":{"name":"University Club","address":"800 Powell Street","city":"San Francisco","state":"CA","zip":"94108","lat":"37.792319","lng":"-122.4089861"},"distance":97.50711618970651},"Lava Lounge":{"closestBar":{"name":"Park Tavern","address":"188 South Park Street","city":"San Francisco","state":"CA","zip":"94107","lat":"37.780983","lng":"-122.3950025"},"distance":131.756077156573},"Lawton Tap Room":{"closestBar":{"name":"Fire Fly Sports Bar","address":"2457 Noriega Street","city":"San Francisco","state":"CA","zip":"94122","lat":"37.7534097","lng":"-122.4902513"},"distance":1110.29061042562},"Le Club Epicurian":{"closestBar":{"name":"Union Square Sports Bar","address":"115 Mason Street","city":"San Francisco","state":"CA","zip":"94102","lat":"37.7846083","lng":"-122.409672"},"distance":73.23248295854066},"Lefty O'Doul's Restaurant & Cocktail Lounge":{"closestBar":{"name":"Bartlett Hall","address":"242 O'Farrell Street","city":"San Francisco","state":"CA","zip":"94102","lat":"37.7864953","lng":"-122.4087511"},"distance":78.08914973490565},"Leung, Will":{"closestBar":{"name":"Mister Bing's","address":"201 Columbus Avenue","city":"San Francisco","state":"CA","zip":"94133","lat":"37.7971443","lng":"-122.4059188"},"distance":103.12748277859683},"Level 2 Karaoke":{"closestBar":{"name":"BooM BooM RooM","address":"1601 Fillmore Street","city":"San Francisco","state":"CA","zip":"94115","lat":"37.7846033","lng":"-122.4331655"},"distance":135.70531822145765},"Li Po Cocktail Lounge":{"closestBar":{"name":"Buddha Lounge","address":"901 Grant Avenue","city":"San Francisco","state":"CA","zip":"94108","lat":"37.795279","lng":"-122.40667"},"distance":26.22577580890297},"Lichee Garden Restaurant":{"closestBar":{"name":"SIP BAR & LOUNGE","address":"787 Broadway","city":"San Francisco","state":"CA","zip":"94133","lat":"37.7973181","lng":"-122.410047"},"distance":60.28514752101476},"Liquid Gold":{"closestBar":{"name":"Hyde-Out","address":"1068 Hyde Street","city":"San Francisco","state":"CA","zip":"94109","lat":"37.7908962","lng":"-122.4172395"},"distance":34.449819715742066},"Little Minsky's Burlesque":{"closestBar":{"name":"Trax","address":"1437 Haight Street","city":"San Francisco","state":"CA","zip":"94117","lat":"37.7699782","lng":"-122.4460345"},"distance":99.88342094628456},"Little Shamrock":{"closestBar":{"name":"Sip Tea Room","address":"721 Lincoln Way","city":"San Francisco","state":"CA","zip":"94122","lat":"37.7657698","lng":"-122.4658419"},"distance":79.4837873860145},"Little Sushi Bar":{"closestBar":{"name":"The Nags Head","address":"5346 Geary Boulevard","city":"San Francisco","state":"CA","zip":"94121","lat":"37.7807171","lng":"-122.4770739"},"distance":600.3275945578775},"Lizzie's Starlight":{"closestBar":{"name":"Bin 480 Bar & Bistro in Marriott on Union Square","address":"480 Sutter Street","city":"San Francisco","state":"CA","zip":"94108","lat":"37.7894575","lng":"-122.4083666"},"distance":46.875548445390734},"Local Edition":{"closestBar":{"name":"Hawthorn","address":"46 Geary Street","city":"San Francisco","state":"CA","zip":"94108","lat":"37.7879924","lng":"-122.4042943"},"distance":107.0491550270181},"Lone Star Saloon":{"closestBar":{"name":"The Stud Bar","address":"399 9th Street","city":"San Francisco","state":"CA","zip":"94103","lat":"37.7728134","lng":"-122.4099831"},"distance":107.70458367842808},"Lookout":{"closestBar":{"name":"Cafe Flore","address":"2298 Market Street","city":"San Francisco","state":"CA","zip":"94114","lat":"37.7646778","lng":"-122.4329332"},"distance":67.26549751162392},"Lou's Fish Shack":{"closestBar":{"name":"Pompei's Grotto","address":"340 Jefferson Street","city":"San Francisco","state":"CA","zip":"94133","lat":"37.8081492","lng":"-122.4181371"},"distance":20.03691444648685},"Lucita's Niteclub":{"closestBar":{"name":"Argus Lounge","address":"3187 Mission Street","city":"San Francisco","state":"CA","zip":"94110","lat":"37.7458783","lng":"-122.4195416"},"distance":132.93496199362758},"Lucky 13":{"closestBar":{"name":"Blackbird","address":"2124 Market Street","city":"San Francisco","state":"CA","zip":"94114","lat":"37.7673056","lng":"-122.4296196"},"distance":34.889978300332494},"Lucky Strike Entertainment":{"closestBar":{"name":"Polo Grounds Pub N Grill","address":"747 3rd Street","city":"San Francisco","state":"CA","zip":"94107","lat":"37.7784939","lng":"-122.3920186"},"distance":41.96322285319218},"Lush Lounge":{"closestBar":{"name":"Mc Teague's Saloon","address":"1237 Polk Street","city":"San Francisco","state":"CA","zip":"94109","lat":"37.7883704","lng":"-122.4205566"},"distance":31.643804099241045},"Madrone Art Bar":{"closestBar":{"name":"Nopa","address":"560 Divisadero Street","city":"San Francisco","state":"CA","zip":"94117","lat":"37.7748935","lng":"-122.4375671"},"distance":75.80117200674916},"Magnolia Brewing - Haight":{"closestBar":{"name":"Little Minsky's Burlesque","address":"1511 Haight Street","city":"San Francisco","state":"CA","zip":"94117","lat":"37.76976860000001","lng":"-122.4471395"},"distance":185.9717781118752},"Make-Out Room":{"closestBar":{"name":"Laslzo","address":"2534 Mission Street","city":"San Francisco","state":"CA","zip":"94110","lat":"37.7564149","lng":"-122.4191801"},"distance":132.21403514565372},"Mariannes":{"closestBar":{"name":"Mo'z Cafe","address":"36 5th Street","city":"San Francisco","state":"CA","zip":"94103","lat":"37.7833874","lng":"-122.4075568"},"distance":49.850957652110964},"Mars Bar & Restaurant":{"closestBar":{"name":"Ted's Sports Bar & Grill","address":"312 Harriet Street","city":"San Francisco","state":"CA","zip":"94103","lat":"37.7752983","lng":"-122.4029017"},"distance":227.43378477332828},"Martin Macks":{"closestBar":{"name":"Hobson's Choice Bar","address":"1601 Haight Street","city":"San Francisco","state":"CA","zip":"94117","lat":"37.7696557","lng":"-122.4486723"},"distance":71.63585905126611},"Mauna Loa":{"closestBar":{"name":"Comet Club","address":"3111 Fillmore Street","city":"San Francisco","state":"CA","zip":"94123","lat":"37.7982121","lng":"-122.4359692"},"distance":102.24725429976324},"Mazcalito Bar & Restaurant":{"closestBar":{"name":"La Folie","address":"2316 Polk Street","city":"San Francisco","state":"CA","zip":"94109","lat":"37.7981417","lng":"-122.4220609"},"distance":38.39372768969565},"Mc Teague's Saloon":{"closestBar":{"name":"Lush Lounge","address":"1221 Polk Street","city":"San Francisco","state":"CA","zip":"94109","lat":"37.7881417","lng":"-122.4203423"},"distance":31.643804099241045},"Mecca":{"closestBar":{"name":"AMD Project","address":"198 Church Street","city":"San Francisco","state":"CA","zip":"94114","lat":"37.7678879","lng":"-122.4291839"},"distance":159.9143587795625},"Mercer Restaurant Group":{"closestBar":{"name":"Bar and restaraunt","address":"121 7th Street","city":"San Francisco","state":"CA","zip":"94103","lat":"37.7788006","lng":"-122.4102065"},"distance":68.95176395067988},"Mezzanine":{"closestBar":{"name":"54 Mint Wine Bar","address":"16 Mint Plaza","city":"San Francisco","state":"CA","zip":"94103","lat":"37.7825772","lng":"-122.4079813"},"distance":13.134140890747224},"Midnight Sun":{"closestBar":{"name":"S F Mix","address":"4086 18th Street","city":"San Francisco","state":"CA","zip":"94114","lat":"37.7610236","lng":"-122.4345258"},"distance":37.324453010069156},"Milk Bar":{"closestBar":{"name":"Citrus Club","address":"1790 Haight Street","city":"San Francisco","state":"CA","zip":"94117","lat":"37.769602","lng":"-122.4516209"},"distance":87.8877313369496},"Miller's Rest":{"closestBar":{"name":"Phlox Commons","address":"1075 Sutter Street","city":"San Francisco","state":"CA","zip":"94109","lat":"37.7878316","lng":"-122.4180126"},"distance":24.252478605271808},"Mini Bar Sf":{"closestBar":{"name":"Kava Lounge Sf","address":"901 Divisadero Street","city":"San Francisco","state":"CA","zip":"94115","lat":"37.7779453","lng":"-122.4387456"},"distance":66.03577748855773},"Mission Bar":{"closestBar":{"name":"Beretta","address":"1199 Valencia Street","city":"San Francisco","state":"CA","zip":"94110","lat":"37.7538422","lng":"-122.4206999"},"distance":203.92227028023703},"Mission Bay Wine & Cheese":{"closestBar":{"name":"ATwater Tavern","address":"295 Terry A Francois Boulevard","city":"San Francisco","state":"CA","zip":"94158","lat":"37.774311","lng":"-122.3872211"},"distance":368.4932985484346},"Mission Bowling Club":{"closestBar":{"name":"City Club","address":"2919 16th Street","city":"San Francisco","state":"CA","zip":"94103","lat":"37.7650069","lng":"-122.4180221"},"distance":170.5778106031218},"Mission Covo":{"closestBar":{"name":"Monarch","address":"101 6th Street","city":"San Francisco","state":"CA","zip":"94103","lat":"37.7809743","lng":"-122.4084128"},"distance":37.256918811503176},"Mission Hills Saloon":{"closestBar":{"name":"Double Play Bar & Grill","address":"2401 16th Street","city":"San Francisco","state":"CA","zip":"94103","lat":"37.7654995","lng":"-122.4106267"},"distance":388.49158767367436},"Mister Bing's":{"closestBar":{"name":"Saw Entertainment Ltd","address":"1031 Kearny Street","city":"San Francisco","state":"CA","zip":"94133","lat":"37.79758","lng":"-122.405734"},"distance":51.09622150249692},"Mo'z Cafe":{"closestBar":{"name":"Mariannes","address":"360 Jessie","city":"San Francisco","state":"CA","zip":"94103","lat":"37.7833359","lng":"-122.4069933"},"distance":49.850957652110964},"Moby Dick":{"closestBar":{"name":"Midnight Sun","address":"4067 18th Street","city":"San Francisco","state":"CA","zip":"94114","lat":"37.76073","lng":"-122.43432"},"distance":55.99981575957874},"Molloy's Tavern":{"closestBar":{"name":"Coda","address":"1710 Mission Street","city":"San Francisco","state":"CA","zip":"94103","lat":"37.7697394","lng":"-122.4203797"},"distance":230.963855223578},"Momo Ca":{"closestBar":{"name":"Fly Trap","address":"606 Folsom Street","city":"San Francisco","state":"CA","zip":"94107","lat":"37.785485","lng":"-122.397216"},"distance":310.0393121930914},"Momo's":{"closestBar":{"name":"Pete's Tavern","address":"128 King Street","city":"San Francisco","state":"CA","zip":"94107","lat":"37.7795096","lng":"-122.3907097"},"distance":56.78462532153977},"Monaghans":{"closestBar":{"name":"Campus","address":"2241 Chestnut Street","city":"San Francisco","state":"CA","zip":"94123","lat":"37.8001603","lng":"-122.440202"},"distance":43.24345928054611},"Monarch":{"closestBar":{"name":"Mission Covo","address":"981 Mission Street","city":"San Francisco","state":"CA","zip":"94103","lat":"37.7812014","lng":"-122.4081011"},"distance":37.256918811503176},"Montesacro Pinseria":{"closestBar":{"name":"Showdown","address":"10 6th Street","city":"San Francisco","state":"CA","zip":"94103","lat":"37.78183569999999","lng":"-122.4100989"},"distance":7.82940973921278},"Morak Lounge":{"closestBar":{"name":"Hideout","address":"3121 16th Street","city":"San Francisco","state":"CA","zip":"94103","lat":"37.7646713","lng":"-122.4224603"},"distance":41.93048113589941},"Mr. Smith's":{"closestBar":{"name":"Soluna Cafe & Lounge","address":"272 Mcallister St","city":"San Francisco","state":"CA","zip":"94102","lat":"37.781214","lng":"-122.4116422"},"distance":146.16052190200293},"Mucky Duck":{"closestBar":{"name":"Social Kitchen & Brewery","address":"1326 9th Avenue","city":"San Francisco","state":"CA","zip":"94122","lat":"37.7634951","lng":"-122.4660283"},"distance":52.639452836831154},"Murio's Trophy Room":{"closestBar":{"name":"Milk Bar","address":"1840 Haight Street","city":"San Francisco","state":"CA","zip":"94117","lat":"37.7695149","lng":"-122.4526147"},"distance":55.59701478732778},"Murphy's Pub":{"closestBar":{"name":"Gingers","address":"246 Kearny Street","city":"San Francisco","state":"CA","zip":"94108","lat":"37.79049930000001","lng":"-122.4038395"},"distance":41.93781469504845},"Myriad Gastropub":{"closestBar":{"name":"Amnesia","address":"853 Valencia Street","city":"San Francisco","state":"CA","zip":"94110","lat":"37.759309","lng":"-122.4210613"},"distance":305.68260417537937},"Mystic Hotel by Charlie Palmer":{"closestBar":{"name":"Last Drop Tavern","address":"550 Powell Street","city":"San Francisco","state":"CA","zip":"94108","lat":"37.7900104","lng":"-122.4085658"},"distance":103.91976777375865},"Naked Fish":{"closestBar":{"name":"Monaghans","address":"3243 Pierce Street","city":"San Francisco","state":"CA","zip":"94123","lat":"37.8000517","lng":"-122.4397294"},"distance":174.4710016374039},"Naked Lunch":{"closestBar":{"name":"Horizon","address":"498 Broadway","city":"San Francisco","state":"CA","zip":"94133","lat":"37.7982351","lng":"-122.4054098"},"distance":22.341699489624283},"Nara Sushi":{"closestBar":{"name":"R.O.H","address":"1500 Van Ness Avenue","city":"San Francisco","state":"CA","zip":"94109","lat":"37.78981479999999","lng":"-122.4217291"},"distance":130.37864836856374},"Natives Bar":{"closestBar":{"name":"Halberstadt Fencers' Club","address":"220 16th Avenue","city":"San Francisco","state":"CA","zip":"94118","lat":"37.7839336","lng":"-122.4750956"},"distance":386.6853342772319},"New Judnich's":{"closestBar":{"name":"El Toro Night Club","address":"2470 San Bruno Avenue","city":"San Francisco","state":"CA","zip":"94134","lat":"37.7306713","lng":"-122.4052746"},"distance":624.2807150452811},"New OSHA Thai Inc":{"closestBar":{"name":"Supperclub San Francisco","address":"657 Harrison Street","city":"San Francisco","state":"CA","zip":"94107","lat":"37.7831065","lng":"-122.3963301"},"distance":190.55995124053578},"Nick's Crispy Taco's":{"closestBar":{"name":"The Buccaneer","address":"2155 Polk Street","city":"San Francisco","state":"CA","zip":"94109","lat":"37.7966504","lng":"-122.4221227"},"distance":57.15170685364523},"Nihon":{"closestBar":{"name":"Wish","address":"1539 Folsom Street","city":"San Francisco","state":"CA","zip":"94103","lat":"37.7712773","lng":"-122.4144397"},"distance":299.12319730758503},"Ninki Sushi Bar & Restaurant":{"closestBar":{"name":"Hong Kong Lounge","address":"1508 Taraval Street","city":"San Francisco","state":"CA","zip":"94116","lat":"37.7429869","lng":"-122.4824415"},"distance":74.293301466595},"Nob Hill Club at the Mark Hopkins":{"closestBar":{"name":"Aliment","address":"786 Bush Street","city":"San Francisco","state":"CA","zip":"94108","lat":"37.7901405","lng":"-122.4102139"},"distance":112.06813585711616},"Noc Noc":{"closestBar":{"name":"Toronado","address":"547 Haight Street","city":"San Francisco","state":"CA","zip":"94117","lat":"37.7718304","lng":"-122.4311305"},"distance":22.399045286233754},"Noc Noc On Broadway":{"closestBar":{"name":"15 Romolo","address":"15 Romolo Place","city":"San Francisco","state":"CA","zip":"94133","lat":"37.7981224","lng":"-122.4063339"},"distance":52.72806906688566},"Noe's Bar":{"closestBar":{"name":"The Dubliner","address":"3838 24th Street","city":"San Francisco","state":"CA","zip":"94114","lat":"37.7517866","lng":"-122.4283512"},"distance":93.74642452206251},"Noeteca Wine Bar":{"closestBar":{"name":"Rock Bar","address":"80 29th Street","city":"San Francisco","state":"CA","zip":"94110","lat":"37.7441631","lng":"-122.4220337"},"distance":190.62105494767013},"Noir Lounge":{"closestBar":{"name":"Two Lips Bar & Lounge","address":"1414 Market Street","city":"San Francisco","state":"CA","zip":"94102","lat":"37.7763296","lng":"-122.4182313"},"distance":163.46561195605895},"Nopa":{"closestBar":{"name":"Madrone Art Bar","address":"500 Divisadero Street","city":"San Francisco","state":"CA","zip":"94117","lat":"37.7742261","lng":"-122.4373914"},"distance":75.80117200674916},"Notte":{"closestBar":{"name":"Bus Stop","address":"1901 Union Street","city":"San Francisco","state":"CA","zip":"94123","lat":"37.7976083","lng":"-122.4306986"},"distance":79.61163854108614},"Novela":{"closestBar":{"name":"Vino Venue","address":"686 Mission Street","city":"San Francisco","state":"CA","zip":"94105","lat":"37.7866616","lng":"-122.4018328"},"distance":61.11301085513053},"Nutrex Club":{"closestBar":{"name":"Ace's","address":"998 Sutter Street","city":"San Francisco","state":"CA","zip":"94109","lat":"37.7884376","lng":"-122.4167129"},"distance":163.99954980030202},"O Izakaya Lounge":{"closestBar":{"name":"Kimocki Inc","address":"1715 Buchanan Street","city":"San Francisco","state":"CA","zip":"94115","lat":"37.785917","lng":"-122.430117"},"distance":140.18250112112602},"O'Farrell Theatre":{"closestBar":{"name":"Great American Music Hall","address":"859 O'Farrell Street","city":"San Francisco","state":"CA","zip":"94109","lat":"37.7848325","lng":"-122.418809"},"distance":39.015520318859366},"O'Keeffe's Bar":{"closestBar":{"name":"Abbey Tavern","address":"4100 Geary Boulevard","city":"San Francisco","state":"CA","zip":"94118","lat":"37.7812691","lng":"-122.4633654"},"distance":430.3004621648271},"O3 Bistro & Lounge":{"closestBar":{"name":"Benders Bar and Grill","address":"806 Van Ness Avenue","city":"San Francisco","state":"CA","zip":"94109","lat":"37.7830918","lng":"-122.4206015"},"distance":286.6308216595749},"Obispo":{"closestBar":{"name":"24th Street Bar","address":"3336 24th Street","city":"San Francisco","state":"CA","zip":"94110","lat":"37.7522878","lng":"-122.4192745"},"distance":128.00269740499922},"Occidental cigar club":{"closestBar":{"name":"Sams Tavern","address":"368 Bush Street","city":"San Francisco","state":"CA","zip":"94104","lat":"37.7910009","lng":"-122.4035876"},"distance":74.73120670195604},"Ocean Club":{"closestBar":{"name":"Ruby Skye","address":"420 Mason Street","city":"San Francisco","state":"CA","zip":"94102","lat":"37.7875878","lng":"-122.4096056"},"distance":82.60446837862106},"Octavia Lounge":{"closestBar":{"name":"Pisco","address":"1817 Market Street","city":"San Francisco","state":"CA","zip":"94103","lat":"37.7712095","lng":"-122.4238306"},"distance":148.1547255302432},"Oddjob":{"closestBar":{"name":"Bon Marche Brasserie & Bar","address":"1355 Market Street","city":"San Francisco","state":"CA","zip":"94103","lat":"37.7768337","lng":"-122.4163755"},"distance":172.77954482033263},"Olympic Club":{"closestBar":{"name":"T J & R Pub Inc","address":"2816 Diamond Street","city":"San Francisco","state":"CA","zip":"94131","lat":"37.7341845","lng":"-122.4341597"},"distance":175.28179399426583},"Olympic Club Rugby":{"closestBar":{"name":"Laurel Court Restaurant & Bar","address":"950 Mason Street","city":"San Francisco","state":"CA","zip":"94108","lat":"37.7923883","lng":"-122.4100923"},"distance":408.27427183715173},"One Project":{"closestBar":{"name":"Blueprint Tap Room","address":"680 8th Street","city":"San Francisco","state":"CA","zip":"94103","lat":"37.7703495","lng":"-122.4046496"},"distance":467.9461023059503},"Opaque - Dining In The Dark":{"closestBar":{"name":"Smuggler's Cove","address":"650 Gough Street","city":"San Francisco","state":"CA","zip":"94102","lat":"37.7795727","lng":"-122.423355"},"distance":0.8505930396539231},"Origin":{"closestBar":{"name":"Level 2 Karaoke","address":"1504 Fillmore Street","city":"San Francisco","state":"CA","zip":"94115","lat":"37.7835577","lng":"-122.4323691"},"distance":39.263081401931174},"Orson's Belly":{"closestBar":{"name":"Natives Bar","address":"5320 Geary Boulevard","city":"San Francisco","state":"CA","zip":"94121","lat":"37.7806431","lng":"-122.4765192"},"distance":477.7289580052678},"Our Place Bar":{"closestBar":{"name":"Cotters Corner","address":"4431 Mission Street","city":"San Francisco","state":"CA","zip":"94112","lat":"37.7272004","lng":"-122.4326241"},"distance":54.69984403106194},"Pagan Idol":{"closestBar":{"name":"Rickhouse","address":"246 Kearny Street","city":"San Francisco","state":"CA","zip":"94108","lat":"37.79049930000001","lng":"-122.4038395"},"distance":27.533344594881523},"Pagoda":{"closestBar":{"name":"O Izakaya Lounge","address":"1625 Post Street","city":"San Francisco","state":"CA","zip":"94115","lat":"37.7854588","lng":"-122.4286309"},"distance":140.12499036300576},"Palio D' Asti":{"closestBar":{"name":"Rm 212","address":"690 Sacramento Street","city":"San Francisco","state":"CA","zip":"94111","lat":"37.7937218","lng":"-122.404362"},"distance":62.59340036919087},"Palmers Tavern":{"closestBar":{"name":"Harry's Bar","address":"2020 Fillmore Street","city":"San Francisco","state":"CA","zip":"94115","lat":"37.7883469","lng":"-122.4335256"},"distance":255.050187079977},"Palomino":{"closestBar":{"name":"Hi Dive","address":"28 Pier","city":"San Francisco","state":"CA","zip":"94105","lat":"37.7880738","lng":"-122.3868101"},"distance":343.62662195098966},"Pancho's Salsa Bar & Grill":{"closestBar":{"name":"Harper & Rye","address":"1695 Polk Street","city":"San Francisco","state":"CA","zip":"94109","lat":"37.7922328","lng":"-122.4213088"},"distance":26.491325060429286},"Pandora Karaoke & Bar":{"closestBar":{"name":"Comedy on the Square","address":"244 Taylor Street","city":"San Francisco","state":"CA","zip":"94102","lat":"37.7847535","lng":"-122.4109583"},"distance":97.67373655434339},"Panta Rei":{"closestBar":{"name":"Hawaii West","address":"729 Vallejo Street","city":"San Francisco","state":"CA","zip":"94133","lat":"37.798365","lng":"-122.4093434"},"distance":95.45675473002483},"Paradise Lounge":{"closestBar":{"name":"The Holy Cow","address":"1535 Folsom Street","city":"San Francisco","state":"CA","zip":"94103","lat":"37.7713728","lng":"-122.4143025"},"distance":35.23297906513125},"Paragon":{"closestBar":{"name":"Momo's","address":"760 2nd Street","city":"San Francisco","state":"CA","zip":"94107","lat":"37.7798453","lng":"-122.3902228"},"distance":88.37410744642239},"Parigo":{"closestBar":{"name":"Telegraph Hill Associates","address":"2241 Chestnut Street","city":"San Francisco","state":"CA","zip":"94123","lat":"37.8001603","lng":"-122.440202"},"distance":77.62795916944998},"Park Tavern":{"closestBar":{"name":"Garaje Sf","address":"475 3rd Street","city":"San Francisco","state":"CA","zip":"94107","lat":"37.7817989","lng":"-122.3960425"},"distance":128.78103342982996},"Parlor":{"closestBar":{"name":"Buena Vista","address":"2765 Hyde Street","city":"San Francisco","state":"CA","zip":"94109","lat":"37.8065278","lng":"-122.4207822"},"distance":134.5100434681122},"Patriot House":{"closestBar":{"name":"Players Arcade & Sports Grill","address":"The-Embarcadero , Pier 39","city":"San Francisco","state":"CA","zip":"94133","lat":"37.80867300000001","lng":"-122.409821"},"distance":175.3187379789832},"Pause Wine Bar":{"closestBar":{"name":"Hotel Biron","address":"45 Rose Street","city":"San Francisco","state":"CA","zip":"94102","lat":"37.7735606","lng":"-122.422052"},"distance":28.4787164612912},"Pe Yale":{"closestBar":{"name":"Eastside West Restaurant & Bar","address":"3154 Fillmore Street","city":"San Francisco","state":"CA","zip":"94123","lat":"37.7988819","lng":"-122.4357517"},"distance":56.69136985561544},"Peach Corvette":{"closestBar":{"name":"Etall","address":"2255 Polk Street","city":"San Francisco","state":"CA","zip":"94109","lat":"37.7976843","lng":"-122.4224591"},"distance":92.91075891947281},"Peacock Lounge":{"closestBar":{"name":"The Mad Dog In The Fog","address":"530 Haight Street","city":"San Francisco","state":"CA","zip":"94117","lat":"37.7721618","lng":"-122.431029"},"distance":32.58588738119161},"Pedro's Cantina":{"closestBar":{"name":"Gotham Club","address":"24 Willie Mays Plaza","city":"San Francisco","state":"CA","zip":"94107","lat":"37.7784199","lng":"-122.3906212"},"distance":121.41849048702788},"Perry's":{"closestBar":{"name":"Bar None","address":"1980 Union Street","city":"San Francisco","state":"CA","zip":"94123","lat":"37.7977267","lng":"-122.4319881"},"distance":60.84603828448023},"Pescatore":{"closestBar":{"name":"Sweetie's Art Bar","address":"475 Francisco Street","city":"San Francisco","state":"CA","zip":"94133","lat":"37.8046506","lng":"-122.4129371"},"distance":207.23042346216457},"Pete's Tavern":{"closestBar":{"name":"Paragon","address":"701 2nd Street","city":"San Francisco","state":"CA","zip":"94107","lat":"37.7806206","lng":"-122.3900016"},"distance":138.32666819787397},"Philosopher's Club":{"closestBar":{"name":"Vin Debut","address":"9 West Portal Avenue","city":"San Francisco","state":"CA","zip":"94127","lat":"37.7405959","lng":"-122.4657866"},"distance":49.55667180233326},"Phlox Commons":{"closestBar":{"name":"Miller's Rest","address":"1085 Sutter Street","city":"San Francisco","state":"CA","zip":"94109","lat":"37.7879123","lng":"-122.418269"},"distance":24.252478605271808},"Phone Booth":{"closestBar":{"name":"Route 101","address":"1332 Van Ness Avenue","city":"San Francisco","state":"CA","zip":"94109","lat":"37.7881294","lng":"-122.4216528"},"distance":46.12949959979249},"PianoFight":{"closestBar":{"name":"Pandora Karaoke & Bar","address":"177 Eddy Street","city":"San Francisco","state":"CA","zip":"94102","lat":"37.783993","lng":"-122.4104021"},"distance":24.928350411649763},"Pied Piper Bar & Grill":{"closestBar":{"name":"Novela","address":"662 Mission Street","city":"San Francisco","state":"CA","zip":"94105","lat":"37.7870852","lng":"-122.4013897"},"distance":162.3449724982222},"Pier 23 Cafe":{"closestBar":{"name":"Hillstone","address":"1800 Montgomery Street","city":"San Francisco","state":"CA","zip":"94111","lat":"37.80599309999999","lng":"-122.4051806"},"distance":476.7019782596544},"Pig and Whistle":{"closestBar":{"name":"Club Buster","address":"2955 Geary Boulevard","city":"San Francisco","state":"CA","zip":"94118","lat":"37.7816741","lng":"-122.4509038"},"distance":156.5934338719792},"Pineapple Bistro & Bar":{"closestBar":{"name":"Jones","address":"620 Jones Street","city":"San Francisco","state":"CA","zip":"94102","lat":"37.7871219","lng":"-122.4131318"},"distance":23.175517153172873},"Pisco":{"closestBar":{"name":"The Mint Karaoke Lounge","address":"1942 Market Street","city":"San Francisco","state":"CA","zip":"94102","lat":"37.770277","lng":"-122.4258163"},"distance":203.01224915470146},"Pissed Off Pete's":{"closestBar":{"name":"Coco's Bar","address":"4541 Mission Street","city":"San Francisco","state":"CA","zip":"94112","lat":"37.7254859","lng":"-122.4338983"},"distance":55.10454630998687},"Pittsburgh's Pub":{"closestBar":{"name":"Lawton Tap Room","address":"3645 Lawton Street","city":"San Francisco","state":"CA","zip":"94122","lat":"37.7566693","lng":"-122.5021886"},"distance":596.0894236756664},"Pizza Inferno Restaurant & Bar":{"closestBar":{"name":"Festa Wine & Cocktail Lounge","address":"1825 Post Street","city":"San Francisco","state":"CA","zip":"94115","lat":"37.78517739999999","lng":"-122.4317809"},"distance":167.54445541477807},"Pizzeria Delfina":{"closestBar":{"name":"Jester's Restaurant & Lounge","address":"50 3rd Street","city":"San Francisco","state":"CA","zip":"94103","lat":"37.7865913","lng":"-122.4028371"},"distance":80.56563458609254},"Platinum Players Club":{"closestBar":{"name":"Gallery Lounge On Brannan","address":"510 Brannan Street","city":"San Francisco","state":"CA","zip":"94107","lat":"37.778271","lng":"-122.3971046"},"distance":214.1567594246837},"Players Arcade & Sports Grill":{"closestBar":{"name":"Patriot House","address":"2 The Embarcadero","city":"San Francisco","state":"CA","zip":"94133","lat":"37.8084064","lng":"-122.4117879"},"distance":175.3187379789832},"Playland Bar":{"closestBar":{"name":"The Grubstake","address":"1525 Pine Street","city":"San Francisco","state":"CA","zip":"94109","lat":"37.789368","lng":"-122.4208221"},"distance":22.460906955721505},"Plush Room Cabaret":{"closestBar":{"name":"Nutrex Club","address":"889 Sutter Street","city":"San Francisco","state":"CA","zip":"94109","lat":"37.7882536","lng":"-122.4148612"},"distance":106.37882326256687},"Polo Grounds Pub N Grill":{"closestBar":{"name":"Lucky Strike Entertainment","address":"200 King Street","city":"San Francisco","state":"CA","zip":"94107","lat":"37.7781718","lng":"-122.3922674"},"distance":41.96322285319218},"Pompei's Grotto":{"closestBar":{"name":"Lou's Fish Shack","address":"300 Jefferson Street","city":"San Francisco","state":"CA","zip":"94133","lat":"37.8081056","lng":"-122.4179158"},"distance":20.03691444648685},"Pops":{"closestBar":{"name":"Sous Beurre Kitchen","address":"2704 24th Street","city":"San Francisco","state":"CA","zip":"94110","lat":"37.753106","lng":"-122.4067338"},"distance":143.95287610386876},"Postalserviceusa Club":{"closestBar":{"name":"Cafe Majestic","address":"1500 Sutter Street","city":"San Francisco","state":"CA","zip":"94109","lat":"37.7872575","lng":"-122.4254455"},"distance":297.6208346426449},"Powerhouse":{"closestBar":{"name":"Azucar Lounge","address":"299 9th Street","city":"San Francisco","state":"CA","zip":"94103","lat":"37.7739373","lng":"-122.4116232"},"distance":105.87038438621714},"Presidio Social Club":{"closestBar":{"name":"Final Final","address":"2990 Baker Street","city":"San Francisco","state":"CA","zip":"94123","lat":"37.7985361","lng":"-122.4457305"},"distance":272.2154397569261},"Primetime Sportsbar & Grill":{"closestBar":{"name":"Little Sushi Bar","address":"200 23rd Avenue","city":"San Francisco","state":"CA","zip":"94121","lat":"37.7838693","lng":"-122.4826197"},"distance":375.2733368906443},"Pub Sutter":{"closestBar":{"name":"Bacchus Kirk","address":"925 Bush Street","city":"San Francisco","state":"CA","zip":"94109","lat":"37.7894696","lng":"-122.4125039"},"distance":68.35312257220555},"Punch Line Comedy Club":{"closestBar":{"name":"Fish & Farm","address":"424 Clay Street","city":"San Francisco","state":"CA","zip":"94111","lat":"37.7951044","lng":"-122.4007895"},"distance":71.40483320871948},"Q Bar":{"closestBar":{"name":"440","address":"440 Castro Street","city":"San Francisco","state":"CA","zip":"94114","lat":"37.7618335","lng":"-122.4352736"},"distance":25.563296064628172},"Que Syrah":{"closestBar":{"name":"The Dubliner Bar West Portal","address":"328 West Portal Avenue","city":"San Francisco","state":"CA","zip":"94127","lat":"37.737787","lng":"-122.4697999"},"distance":143.71070096700305},"R & G Lounge":{"closestBar":{"name":"E Z 5 Inc","address":"684 Commercial Street","city":"San Francisco","state":"CA","zip":"94111","lat":"37.7941822","lng":"-122.4044033"},"distance":47.000324480205535},"R Bar":{"closestBar":{"name":"Upcider","address":"1160 Polk Street","city":"San Francisco","state":"CA","zip":"94109","lat":"37.7875316","lng":"-122.4199315"},"distance":56.657533665261184},"R.O.H":{"closestBar":{"name":"Playland Bar","address":"1351 Polk Street","city":"San Francisco","state":"CA","zip":"94109","lat":"37.7895017","lng":"-122.4206305"},"distance":102.62383490860766},"R.O.H Bar":{"closestBar":{"name":"The Pour House","address":"1327 Polk Street","city":"San Francisco","state":"CA","zip":"94109","lat":"37.789051","lng":"-122.4206102"},"distance":129.9247287578397},"Raw Satisfaction":{"closestBar":{"name":"San Francisco Brewing Co. Tap Room","address":"2175 Market Street","city":"San Francisco","state":"CA","zip":"94114","lat":"37.7663383","lng":"-122.4300466"},"distance":300.8625163102382},"Red Dog Restaurant":{"closestBar":{"name":"Momo Ca","address":"18 Lansing Street","city":"San Francisco","state":"CA","zip":"94105","lat":"37.7863632","lng":"-122.3938675"},"distance":189.71326296594873},"Red Forest Whisper":{"closestBar":{"name":"Siberia","address":"424 Treat Avenue","city":"San Francisco","state":"CA","zip":"94110","lat":"37.7634488","lng":"-122.4138962"},"distance":279.5532224711294},"Redford":{"closestBar":{"name":"Rye","address":"688 Geary Street","city":"San Francisco","state":"CA","zip":"94102","lat":"37.78670779999999","lng":"-122.4146193"},"distance":39.51231493706838},"Reed & Greenough":{"closestBar":{"name":"Parigo","address":"3232 Scott Street","city":"San Francisco","state":"CA","zip":"94123","lat":"37.7997516","lng":"-122.4409183"},"distance":43.33104888739068},"Rentalpoboxes Club":{"closestBar":{"name":"Concordia Argonaut","address":"1142 Van Ness Avenue","city":"San Francisco","state":"CA","zip":"94109","lat":"37.7863845","lng":"-122.4211832"},"distance":395.1550192647681},"Restaurant Chee & Water Bar":{"closestBar":{"name":"Lava Lounge","address":"527 Bryant Street","city":"San Francisco","state":"CA","zip":"94107","lat":"37.7805795","lng":"-122.3964121"},"distance":68.57665635242674},"Richmond Republic Draught House":{"closestBar":{"name":"Halu","address":"312 8th Avenue","city":"San Francisco","state":"CA","zip":"94118","lat":"37.7825683","lng":"-122.4664565"},"distance":60.451356848188816},"Rickhouse":{"closestBar":{"name":"Pagan Idol","address":"375 Bush Street","city":"San Francisco","state":"CA","zip":"94104","lat":"37.79068669999999","lng":"-122.4036347"},"distance":27.533344594881523},"Ritch Street Supper Club":{"closestBar":{"name":"Twenty Five Lusk","address":"25 Lusk Street","city":"San Francisco","state":"CA","zip":"94107","lat":"37.7785673","lng":"-122.3943829"},"distance":58.61851256236891},"Rm 212":{"closestBar":{"name":"Palio D' Asti","address":"640 Sacramento Street","city":"San Francisco","state":"CA","zip":"94111","lat":"37.7938689","lng":"-122.4036744"},"distance":62.59340036919087},"Rn74":{"closestBar":{"name":"83 Proof","address":"83 1st Street","city":"San Francisco","state":"CA","zip":"94105","lat":"37.7900567","lng":"-122.3977007"},"distance":140.73182690124446},"Roc Bar & Nightclub":{"closestBar":{"name":"Scoma's Fisherman's Wharf","address":"1965 Al Scoma Way","city":"San Francisco","state":"CA","zip":"94133","lat":"37.8089443","lng":"-122.4184597"},"distance":228.7716267043643},"Rock Bar":{"closestBar":{"name":"Thread Lounge Inc","address":"60 29th Street","city":"San Francisco","state":"CA","zip":"94110","lat":"37.7441807","lng":"-122.4214636"},"distance":50.16570865551723},"Rogue Ales Public House":{"closestBar":{"name":"Woody Zips","address":"1609 Powell Street","city":"San Francisco","state":"CA","zip":"94133","lat":"37.7994886","lng":"-122.4108462"},"distance":69.24010902900804},"Rosewood":{"closestBar":{"name":"Lichee Garden Restaurant","address":"1416 Powell Street","city":"San Francisco","state":"CA","zip":"94133","lat":"37.7978495","lng":"-122.410183"},"distance":88.40543482310869},"Rouge et Blanc":{"closestBar":{"name":"E & O Kitchen and Bar","address":"314 Sutter Street","city":"San Francisco","state":"CA","zip":"94108","lat":"37.789717","lng":"-122.405846"},"distance":66.44093809608974},"Route 101":{"closestBar":{"name":"Phone Booth","address":"1398 Van Ness Avenue","city":"San Francisco","state":"CA","zip":"94109","lat":"37.7884986","lng":"-122.4218922"},"distance":46.12949959979249},"Rove Kitchen":{"closestBar":{"name":"Banshee Bar","address":"640 Post Street","city":"San Francisco","state":"CA","zip":"94109","lat":"37.787962","lng":"-122.4124776"},"distance":39.05479116245066},"Royal Exchange":{"closestBar":{"name":"Harrington's Bar & Grill","address":"245 Front Street","city":"San Francisco","state":"CA","zip":"94111","lat":"37.794057","lng":"-122.3991919"},"distance":9.69243876218862},"Royal Oak":{"closestBar":{"name":"Nick's Crispy Taco's","address":"1500 Broadway","city":"San Francisco","state":"CA","zip":"94109","lat":"37.7961366","lng":"-122.4221398"},"distance":98.5325112337723},"Royale":{"closestBar":{"name":"Grant & Green Saloon","address":"1371 Grant Avenue","city":"San Francisco","state":"CA","zip":"94133","lat":"37.7995667","lng":"-122.4075038"},"distance":45.649803429028985},"Ruby Skye":{"closestBar":{"name":"Ocean Club","address":"450 Post Street","city":"San Francisco","state":"CA","zip":"94102","lat":"37.7882994","lng":"-122.4093357"},"distance":82.60446837862106},"Rumors":{"closestBar":{"name":"Bloodhound","address":"1145 Folsom Street","city":"San Francisco","state":"CA","zip":"94103","lat":"37.7758151","lng":"-122.4088179"},"distance":200.50240597419858},"Ruru Kitchen":{"closestBar":{"name":"Sutter Station Tavern-Cocktail Lounge","address":"554 Market Street","city":"San Francisco","state":"CA","zip":"94104","lat":"37.7899599","lng":"-122.4009151"},"distance":88.06825547359507},"Rusted Mule":{"closestBar":{"name":"Vertigo","address":"1160 Polk Street","city":"San Francisco","state":"CA","zip":"94109","lat":"37.7875316","lng":"-122.4199315"},"distance":47.69495240161338},"Rx":{"closestBar":{"name":"Redford","address":"673 Geary St","city":"San Francisco","state":"CA","zip":"94102","lat":"37.7864948","lng":"-122.4142594"},"distance":68.89840595655004},"Rye":{"closestBar":{"name":"Rx","address":"701 Geary Street","city":"San Francisco","state":"CA","zip":"94109","lat":"37.7863003","lng":"-122.4150038"},"distance":56.52305000785615},"S F Italian Athletic Club":{"closestBar":{"name":"Gino & Carlo","address":"548 Green Street","city":"San Francisco","state":"CA","zip":"94133","lat":"37.7998704","lng":"-122.4081829"},"distance":132.46890879233777},"S F Mix":{"closestBar":{"name":"Blush! Wine Bar","address":"476 Castro Street","city":"San Francisco","state":"CA","zip":"94114","lat":"37.76127640000001","lng":"-122.4352284"},"distance":67.8596909105811},"Sabella & La Torre":{"closestBar":{"name":"Chowder Hut Grill","address":"2890 Taylor Street","city":"San Francisco","state":"CA","zip":"94133","lat":"37.8087857","lng":"-122.4156122"},"distance":46.05173368013504},"Sakana":{"closestBar":{"name":"Bar 587","address":"587 Post Street","city":"San Francisco","state":"CA","zip":"94102","lat":"37.7877655","lng":"-122.4114052"},"distance":54.17709373578216},"Sam Jordan's Bar and Grill":{"closestBar":{"name":"Speakeasy Ales & Lagers","address":"1195 Evans Avenue","city":"San Francisco","state":"CA","zip":"94124","lat":"37.73816559999999","lng":"-122.3806629"},"distance":787.1968772139566},"Sams Tavern":{"closestBar":{"name":"Occidental cigar club","address":"471 Pine Street","city":"San Francisco","state":"CA","zip":"94104","lat":"37.7916707","lng":"-122.4036575"},"distance":74.73120670195604},"San Francisco Athletic Club":{"closestBar":{"name":"Bistro Sf Grill","address":"2819 California Street","city":"San Francisco","state":"CA","zip":"94115","lat":"37.7878544","lng":"-122.4408075"},"distance":219.15143000627683},"San Francisco Brewing Co. Tap Room":{"closestBar":{"name":"Swedish American Hall","address":"2174 Market Street","city":"San Francisco","state":"CA","zip":"94114","lat":"37.7666642","lng":"-122.4305185"},"distance":55.08045277239179},"Sapoten":{"closestBar":{"name":"Hockey Haven","address":"3625 Balboa Street","city":"San Francisco","state":"CA","zip":"94121","lat":"37.7754892","lng":"-122.4977786"},"distance":193.44627789651582},"Savoy Tivoli":{"closestBar":{"name":"Royale","address":"1326 Grant Avenue","city":"San Francisco","state":"CA","zip":"94133","lat":"37.7992662","lng":"-122.4071498"},"distance":110.03383018830246},"Saw Entertainment Ltd":{"closestBar":{"name":"Bamboo Hut","address":"479 Broadway","city":"San Francisco","state":"CA","zip":"94133","lat":"37.7979112","lng":"-122.405101"},"distance":66.70554468868569},"Scala's Bistro":{"closestBar":{"name":"Starlight Room","address":"450 Powell Street","city":"San Francisco","state":"CA","zip":"94102","lat":"37.7890363","lng":"-122.4083445"},"distance":25.149869656870273},"Scarlet Lounge":{"closestBar":{"name":"Happy Lounge","address":"3745 Geary Boulevard","city":"San Francisco","state":"CA","zip":"94118","lat":"37.7809359","lng":"-122.4597055"},"distance":438.4356607727549},"Scoma's Fisherman's Wharf":{"closestBar":{"name":"Sabella & La Torre","address":"2809 Taylor Street","city":"San Francisco","state":"CA","zip":"94133","lat":"37.8084592","lng":"-122.4159347"},"distance":228.28763464433203},"Score Sports Bar & Lounge":{"closestBar":{"name":"Broadway Studios","address":"435 Broadway","city":"San Francisco","state":"CA","zip":"94133","lat":"37.7980182","lng":"-122.4044996"},"distance":83.5309418978639},"Sessions at the Presidio":{"closestBar":{"name":"Causwells","address":"2346 Chestnut Street","city":"San Francisco","state":"CA","zip":"94123","lat":"37.8002501","lng":"-122.4419978"},"distance":663.5615034637594},"Shanghai 1930--CLOSED":{"closestBar":{"name":"Crystal Jade Jiang Nan","address":"4 Embarcadero Center","city":"San Francisco","state":"CA","zip":"94111","lat":"37.7953898","lng":"-122.3961067"},"distance":402.33669899267085},"Shanghai Kelly's":{"closestBar":{"name":"Royal Oak","address":"2201 Polk Street","city":"San Francisco","state":"CA","zip":"94109","lat":"37.79702169999999","lng":"-122.4221937"},"distance":140.02245586815798},"Shotwell's":{"closestBar":{"name":"The Homestead","address":"2301 Folsom Street","city":"San Francisco","state":"CA","zip":"94110","lat":"37.7604123","lng":"-122.4146016"},"distance":207.5420891187485},"Showdown":{"closestBar":{"name":"Montesacro Pinseria","address":"510 Stevenson Street","city":"San Francisco","state":"CA","zip":"94103","lat":"37.7818596","lng":"-122.4101827"},"distance":7.82940973921278},"Siberia":{"closestBar":{"name":"Mission Bowling Club","address":"3176 17th Street","city":"San Francisco","state":"CA","zip":"94110","lat":"37.763895","lng":"-122.4166852"},"distance":250.13547513285678},"Silver Clouds":{"closestBar":{"name":"Naked Fish","address":"2084 Chestnut Street","city":"San Francisco","state":"CA","zip":"94123","lat":"37.8007934","lng":"-122.4379795"},"distance":324.0432213490917},"SIP BAR & LOUNGE":{"closestBar":{"name":"Panta Rei","address":"431 Columbus Avenue","city":"San Francisco","state":"CA","zip":"94133","lat":"37.7990472","lng":"-122.4086839"},"distance":226.51863389774954},"Sip Tea Room":{"closestBar":{"name":"Little Shamrock","address":"807 Lincoln Way","city":"San Francisco","state":"CA","zip":"94122","lat":"37.7656707","lng":"-122.4667374"},"distance":79.4837873860145},"Sky Deck Bar":{"closestBar":{"name":"Wayfare Tavern","address":"558 Sacramento Street","city":"San Francisco","state":"CA","zip":"94111","lat":"37.7940228","lng":"-122.402342"},"distance":221.3315879878048},"Skylark":{"closestBar":{"name":"Bond Bar","address":"3079 16th Street","city":"San Francisco","state":"CA","zip":"94103","lat":"37.7648256","lng":"-122.4213253"},"distance":28.563734813438398},"Slate":{"closestBar":{"name":"Starboard","address":"2919 16th Street","city":"San Francisco","state":"CA","zip":"94103","lat":"37.7650069","lng":"-122.4180221"},"distance":9.320814310506636},"Slim's":{"closestBar":{"name":"Paradise Lounge","address":"1501 Folsom Street","city":"San Francisco","state":"CA","zip":"94103","lat":"37.7715869","lng":"-122.414007"},"distance":60.96118649841702},"Smokestack":{"closestBar":{"name":"Triple Voodoo Brewery","address":"2245 3rd Street","city":"San Francisco","state":"CA","zip":"94107","lat":"37.761219","lng":"-122.3884587"},"distance":391.4157136505267},"Smuggler's Cove":{"closestBar":{"name":"Opaque - Dining In The Dark","address":"689 McAllister Street","city":"San Francisco","state":"CA","zip":"94102","lat":"37.7795803","lng":"-122.4233539"},"distance":0.8505930396539231},"Social Kitchen & Brewery":{"closestBar":{"name":"Blackthorn","address":"834 Irving Street","city":"San Francisco","state":"CA","zip":"94122","lat":"37.7642356","lng":"-122.467047"},"distance":121.64988391100752},"Soluna Cafe & Lounge":{"closestBar":{"name":"O3 Bistro & Lounge","address":"524 Van Ness Avenue","city":"San Francisco","state":"CA","zip":"94102","lat":"37.7805414","lng":"-122.4201278"},"distance":313.70179367190633},"Soma Lounge":{"closestBar":{"name":"Molloy's Tavern","address":"1655 Mission Street","city":"San Francisco","state":"CA","zip":"94103","lat":"37.7715909","lng":"-122.4191887"},"distance":284.7390320741225},"Sous Beurre Kitchen":{"closestBar":{"name":"La Movida","address":"3066 24th Street","city":"San Francisco","state":"CA","zip":"94110","lat":"37.752677","lng":"-122.4134372"},"distance":591.2718006136045},"Southend Grill 'N' Bar":{"closestBar":{"name":"Dovre Club","address":"1498 Valencia Street","city":"San Francisco","state":"CA","zip":"94110","lat":"37.7490222","lng":"-122.4205845"},"distance":38.75595870677499},"Southern Pacific Brewing":{"closestBar":{"name":"Shotwell's","address":"3349 20th Street","city":"San Francisco","state":"CA","zip":"94110","lat":"37.75874","lng":"-122.4156501"},"distance":215.19982267369758},"Sozai Restaurant and Sake Lounge":{"closestBar":{"name":"Under Dog Sports Bar & Grill","address":"1824 Irving Street","city":"San Francisco","state":"CA","zip":"94122","lat":"37.7638176","lng":"-122.4777046"},"distance":315.0213204244245},"Speakeasy Ales & Lagers":{"closestBar":{"name":"Sam Jordan's Bar and Grill","address":"4004 3rd Street","city":"San Francisco","state":"CA","zip":"94124","lat":"37.7410475","lng":"-122.3888398"},"distance":787.1968772139566},"St Francis Yacht Club":{"closestBar":{"name":"Reed & Greenough","address":"3251 Scott Street","city":"San Francisco","state":"CA","zip":"94123","lat":"37.799838","lng":"-122.4413992"},"distance":738.373246428835},"Starboard":{"closestBar":{"name":"Uptown","address":"200 Capp Street","city":"San Francisco","state":"CA","zip":"94110","lat":"37.7631901","lng":"-122.4186065"},"distance":208.44816577348342},"Starlight Room":{"closestBar":{"name":"Mystic Hotel by Charlie Palmer","address":"417 Stockton Street","city":"San Francisco","state":"CA","zip":"94108","lat":"37.7897895","lng":"-122.4074167"},"distance":116.88213023596639},"Steamed Sloth Inc":{"closestBar":{"name":"Notte","address":"1851 Union Street","city":"San Francisco","state":"CA","zip":"94123","lat":"37.7977031","lng":"-122.4298005"},"distance":24.757330541957046},"Steap Tea Bar":{"closestBar":{"name":"The JCB Tasting Lounge","address":"600 Stockton Street","city":"San Francisco","state":"CA","zip":"94108","lat":"37.7918754","lng":"-122.4070392"},"distance":157.61008763263317},"Steep Brew Taproom":{"closestBar":{"name":"Restaurant Chee & Water Bar","address":"133 Stillman Street","city":"San Francisco","state":"CA","zip":"94107","lat":"37.7809623","lng":"-122.3970239"},"distance":244.72020164054138},"Steffs":{"closestBar":{"name":"Kate O'Brien's Irish Bar & Grill","address":"579 Howard Street","city":"San Francisco","state":"CA","zip":"94105","lat":"37.7870655","lng":"-122.3974916"},"distance":143.29143203102632},"Steins":{"closestBar":{"name":"Dirty Trix Saloon","address":"408 Clement Street","city":"San Francisco","state":"CA","zip":"94118","lat":"37.7832175","lng":"-122.4637743"},"distance":305.8041241921546},"Sugar Lounge":{"closestBar":{"name":"Absinthe Brasserie & Bar","address":"398 Hayes Street","city":"San Francisco","state":"CA","zip":"94102","lat":"37.7771042","lng":"-122.4227403"},"distance":35.49466149696686},"Summer Place":{"closestBar":{"name":"Cantina","address":"580 Sutter Street","city":"San Francisco","state":"CA","zip":"94108","lat":"37.7892655","lng":"-122.4099596"},"distance":78.02195133661519},"Supperclub San Francisco":{"closestBar":{"name":"New OSHA Thai Inc","address":"311 3rd Street","city":"San Francisco","state":"CA","zip":"94107","lat":"37.7836468","lng":"-122.3983879"},"distance":190.55995124053578},"Sutter Station Tavern-Cocktail Lounge":{"closestBar":{"name":"The Meatball Bar","address":"126 Sutter Street","city":"San Francisco","state":"CA","zip":"94104","lat":"37.790078","lng":"-122.402794"},"distance":165.62619540633924},"Swedish American Hall":{"closestBar":{"name":"Brewcade","address":"2200 Market Street","city":"San Francisco","state":"CA","zip":"94114","lat":"37.7657731","lng":"-122.4316196"},"distance":138.51337990817677},"Sweetie's Art Bar":{"closestBar":{"name":"Pescatore","address":"2455 Mason Street","city":"San Francisco","state":"CA","zip":"94133","lat":"37.8063326","lng":"-122.4139529"},"distance":207.23042346216457},"Swig":{"closestBar":{"name":"Pineapple Bistro & Bar","address":"580 Geary Street","city":"San Francisco","state":"CA","zip":"94102","lat":"37.7869422","lng":"-122.4129982"},"distance":59.47159649525028},"Swirl On Castro":{"closestBar":{"name":"Hamburger Mary's","address":"541 Castro Street","city":"San Francisco","state":"CA","zip":"94114","lat":"37.7601922","lng":"-122.4348075"},"distance":59.710293519215725},"T J & R Pub Inc":{"closestBar":{"name":"Tataki","address":"678 Chenery Street","city":"San Francisco","state":"CA","zip":"94131","lat":"37.7346046","lng":"-122.4336521"},"distance":64.61152487639103},"Tabletop Tap House":{"closestBar":{"name":"B Restaurant & Bar","address":"720 Howard Street","city":"San Francisco","state":"CA","zip":"94103","lat":"37.7844758","lng":"-122.4019203"},"distance":118.81829789091123},"Taj Campton Place Restaurant":{"closestBar":{"name":"The Irish Bank","address":"10 Mark Lane","city":"San Francisco","state":"CA","zip":"94108","lat":"37.7904802","lng":"-122.4046843"},"distance":226.4103749144831},"Tank 18 Winery":{"closestBar":{"name":"AsiaSF","address":"201 9th Street","city":"San Francisco","state":"CA","zip":"94103","lat":"37.7750692","lng":"-122.4127915"},"distance":116.89978787664619},"Tap 415":{"closestBar":{"name":"Le Club Epicurian","address":"55 Cyril Magnin Street","city":"San Francisco","state":"CA","zip":"94102","lat":"37.7849258","lng":"-122.4089419"},"distance":255.45631993621677},"Tataki":{"closestBar":{"name":"T J & R Pub Inc","address":"2816 Diamond Street","city":"San Francisco","state":"CA","zip":"94131","lat":"37.7341845","lng":"-122.4341597"},"distance":64.61152487639103},"Taverna Aventine":{"closestBar":{"name":"Bocadillos","address":"710 Montgomery Street","city":"San Francisco","state":"CA","zip":"94111","lat":"37.7958011","lng":"-122.4031672"},"distance":25.32507090883534},"Ted's Sports Bar & Grill":{"closestBar":{"name":"Mars Bar & Restaurant","address":"798 Brannan Street","city":"San Francisco","state":"CA","zip":"94103","lat":"37.7732647","lng":"-122.4031788"},"distance":227.43378477332828},"Tee Off Bar & Grill":{"closestBar":{"name":"China Town Business Pub Co","address":"695 26th Avenue","city":"San Francisco","state":"CA","zip":"94121","lat":"37.776386","lng":"-122.485796"},"distance":843.8882426846212},"Telegraph Hill Associates":{"closestBar":{"name":"Mauna Loa","address":"3009 Fillmore Street","city":"San Francisco","state":"CA","zip":"94123","lat":"37.7973143","lng":"-122.4357177"},"distance":505.35695636332275},"Tempest Bar":{"closestBar":{"name":"Dwellaware","address":"379 Clementina Street","city":"San Francisco","state":"CA","zip":"94103","lat":"37.780974","lng":"-122.403282"},"distance":261.06276749008725},"Terroir":{"closestBar":{"name":"Rumors","address":"398 7th Street","city":"San Francisco","state":"CA","zip":"94103","lat":"37.77555270000001","lng":"-122.4065609"},"distance":204.8133957892438},"The 500 Club":{"closestBar":{"name":"Elbo Room","address":"647 Valencia Street","city":"San Francisco","state":"CA","zip":"94110","lat":"37.7625064","lng":"-122.4214116"},"distance":251.53117408940216},"The Alembic":{"closestBar":{"name":"Cleriti Club","address":"444 Cole Street","city":"San Francisco","state":"CA","zip":"94117","lat":"37.77085040000001","lng":"-122.4502782"},"distance":187.87532754430924},"The Alibi":{"closestBar":{"name":"Club Kristi","address":"782 O'Farrell Street","city":"San Francisco","state":"CA","zip":"94109","lat":"37.7853591","lng":"-122.4175382"},"distance":94.55889632061937},"The Armory Club":{"closestBar":{"name":"Another Monkey","address":"280 Valencia Street","city":"San Francisco","state":"CA","zip":"94103","lat":"37.7685083","lng":"-122.4225439"},"distance":248.77513763249428},"The Beer Hall":{"closestBar":{"name":"Cockblock","address":"155 Fell Street","city":"San Francisco","state":"CA","zip":"94102","lat":"37.7760033","lng":"-122.4204681"},"distance":225.5565845563779},"The Bell Tower":{"closestBar":{"name":"Buffalo Theory","address":"1735 Polk Street","city":"San Francisco","state":"CA","zip":"94109","lat":"37.792899","lng":"-122.4213359"},"distance":159.28801885207366},"The Bitter End":{"closestBar":{"name":"Scarlet Lounge","address":"408 Clement Street","city":"San Francisco","state":"CA","zip":"94118","lat":"37.7832175","lng":"-122.4637743"},"distance":59.370006678772555},"The Black Horse London Pub":{"closestBar":{"name":"Peach Corvette","address":"2360 Van Ness Avenue","city":"San Francisco","state":"CA","zip":"94109","lat":"37.7975319","lng":"-122.4234988"},"distance":148.1106538067951},"The Brixton on 2nd":{"closestBar":{"name":"21st Amendment Brewery Cafe","address":"563 2nd Street","city":"San Francisco","state":"CA","zip":"94107","lat":"37.78252790000001","lng":"-122.3924578"},"distance":302.61152153105553},"The Buccaneer":{"closestBar":{"name":"Mazcalito Bar & Restaurant","address":"2323 Polk Street","city":"San Francisco","state":"CA","zip":"94109","lat":"37.7981647","lng":"-122.4224969"},"distance":171.5624547397015},"The Chapel":{"closestBar":{"name":"Etcetera Wine Bar","address":"795 Valencia Street","city":"San Francisco","state":"CA","zip":"94110","lat":"37.7602981","lng":"-122.4212092"},"distance":23.44908236055423},"The Chieftain Irish Pub & Restaurant":{"closestBar":{"name":"Tempest Bar","address":"431 Natoma Street","city":"San Francisco","state":"CA","zip":"94103","lat":"37.7811581","lng":"-122.4062434"},"distance":90.84127777714374},"The Cinch":{"closestBar":{"name":"Pancho's Salsa Bar & Grill","address":"1639 Polk Street","city":"San Francisco","state":"CA","zip":"94109","lat":"37.7919986","lng":"-122.4212535"},"distance":86.0353745371077},"The Cosmo Bar & Lounge":{"closestBar":{"name":"Score Sports Bar & Lounge","address":"498 Broadway","city":"San Francisco","state":"CA","zip":"94133","lat":"37.7982351","lng":"-122.4054098"},"distance":66.15949033462815},"The Crafty Fox Ale House":{"closestBar":{"name":"The Armory Club","address":"1799 Mission Street","city":"San Francisco","state":"CA","zip":"94103","lat":"37.7684172","lng":"-122.419716"},"distance":168.14618679796288},"The Dubliner":{"closestBar":{"name":"Noe's Bar","address":"1199 Church Street","city":"San Francisco","state":"CA","zip":"94114","lat":"37.7518453","lng":"-122.4272875"},"distance":93.74642452206251},"The Dubliner Bar West Portal":{"closestBar":{"name":"Que Syrah","address":"230 West Portal Avenue","city":"San Francisco","state":"CA","zip":"94127","lat":"37.7387492","lng":"-122.4687088"},"distance":143.71070096700305},"The Eagles Drift Inn":{"closestBar":{"name":"Boomerang Cocktail Lounge","address":"1430 Noriega Street","city":"San Francisco","state":"CA","zip":"94122","lat":"37.7543419","lng":"-122.479197"},"distance":185.97692686535422},"The Edge":{"closestBar":{"name":"Bar Vero","address":"4230 18th Street","city":"San Francisco","state":"CA","zip":"94114","lat":"37.7609919","lng":"-122.4368372"},"distance":82.23223032319484},"The Endup":{"closestBar":{"name":"Blow Buddies","address":"933 Harrison Street","city":"San Francisco","state":"CA","zip":"94107","lat":"37.7782908","lng":"-122.4023707"},"distance":166.97822055146892},"The European":{"closestBar":{"name":"Swig","address":"561 Geary Street","city":"San Francisco","state":"CA","zip":"94102","lat":"37.78664270000001","lng":"-122.4124375"},"distance":105.77777838053328},"The Fillmore":{"closestBar":{"name":"United Love Inc","address":"1410 Steiner Street","city":"San Francisco","state":"CA","zip":"94115","lat":"37.7823632","lng":"-122.4339113"},"distance":194.86276422251814},"The Fishbowl Bar & Grill":{"closestBar":{"name":"Divisadero Sports Bar","address":"1750 Divisadero Street","city":"San Francisco","state":"CA","zip":"94115","lat":"37.7860568","lng":"-122.439785"},"distance":98.40735552776778},"The Girls Lounge":{"closestBar":{"name":"Hearth Bar","address":"4701 Geary Boulevard","city":"San Francisco","state":"CA","zip":"94118","lat":"37.7805187","lng":"-122.4697837"},"distance":15.72370453931544},"The Greens Sports Bar":{"closestBar":{"name":"Tonic","address":"2360 Polk Street","city":"San Francisco","state":"CA","zip":"94109","lat":"37.7987047","lng":"-122.4221676"},"distance":128.2275211398358},"The Grubstake":{"closestBar":{"name":"R.O.H Bar","address":"1500 Van Ness Avenue","city":"San Francisco","state":"CA","zip":"94109","lat":"37.78981479999999","lng":"-122.4217291"},"distance":93.91803709905184},"The Hall":{"closestBar":{"name":"Soluna Cafe & Lounge","address":"272 Mcallister St","city":"San Francisco","state":"CA","zip":"94102","lat":"37.781214","lng":"-122.4116422"},"distance":77.99458390154066},"The Hidden Vine":{"closestBar":{"name":"Rove Kitchen","address":"678 Post Street","city":"San Francisco","state":"CA","zip":"94109","lat":"37.7879253","lng":"-122.4129196"},"distance":66.48733158683265},"The Holy Cow":{"closestBar":{"name":"DNA Lounge","address":"375 11th Street","city":"San Francisco","state":"CA","zip":"94103","lat":"37.7711031","lng":"-122.4126145"},"distance":151.36798535205577},"The Homestead":{"closestBar":{"name":"Southern Pacific Brewing","address":"620 Treat Avenue","city":"San Francisco","state":"CA","zip":"94110","lat":"37.7600483","lng":"-122.4138462"},"distance":77.7688285921609},"The Interval":{"closestBar":{"name":"Silver Clouds","address":"1994 Lombard Street","city":"San Francisco","state":"CA","zip":"94123","lat":"37.8003619","lng":"-122.434332"},"distance":576.8839605868251},"The Irish Bank":{"closestBar":{"name":"Murphy's Pub","address":"217 Kearny Street","city":"San Francisco","state":"CA","zip":"94108","lat":"37.7901889","lng":"-122.4041106"},"distance":59.921704042756154},"The JCB Tasting Lounge":{"closestBar":{"name":"Steap Tea Bar","address":"827 Sacramento Street","city":"San Francisco","state":"CA","zip":"94108","lat":"37.7932518","lng":"-122.4066108"},"distance":157.61008763263317},"The Lister Bar":{"closestBar":{"name":"Cyprus Grill","address":"99 Harding Road","city":"San Francisco","state":"CA","zip":"94132","lat":"37.7259422","lng":"-122.492665"},"distance":1898.0237489710098},"The Mad Dog In The Fog":{"closestBar":{"name":"Peacock Lounge","address":"552 Haight Street","city":"San Francisco","state":"CA","zip":"94117","lat":"37.772198","lng":"-122.4313969"},"distance":32.58588738119161},"The Meatball Bar":{"closestBar":{"name":"Pied Piper Bar & Grill","address":"2 New Montgomery Street","city":"San Francisco","state":"CA","zip":"94105","lat":"37.7884503","lng":"-122.4020449"},"distance":192.59079418677567},"The Meatball Bar Hayes St":{"closestBar":{"name":"Two Sisters Bar and Books","address":"579 Hayes Street","city":"San Francisco","state":"CA","zip":"94102","lat":"37.7764194","lng":"-122.4258472"},"distance":77.0549777729358},"The Mint Karaoke Lounge":{"closestBar":{"name":"Mecca","address":"2029 Market Street","city":"San Francisco","state":"CA","zip":"94114","lat":"37.7683932","lng":"-122.4274806"},"distance":255.49457808473306},"The Mint Space":{"closestBar":{"name":"Tony's Cable Car Restaurant","address":"2500 Geary Boulevard","city":"San Francisco","state":"CA","zip":"94115","lat":"37.782823","lng":"-122.4450503"},"distance":510.1719045195912},"The Monk's Kettle":{"closestBar":{"name":"Five Hundred Club","address":"500 Guerrero Street","city":"San Francisco","state":"CA","zip":"94110","lat":"37.7630249","lng":"-122.4241968"},"distance":216.51928710866343},"The Nags Head":{"closestBar":{"name":"Primetime Sportsbar & Grill","address":"1810 Clement Street","city":"San Francisco","state":"CA","zip":"94121","lat":"37.7824201","lng":"-122.4787632"},"distance":240.62368362618423},"The Office":{"closestBar":{"name":"Raw Satisfaction","address":"264 Dolores Street","city":"San Francisco","state":"CA","zip":"94103","lat":"37.7652202","lng":"-122.4269298"},"distance":361.91890454524},"The Outsiders":{"closestBar":{"name":"Irving Pizza","address":"928 Geary Street","city":"San Francisco","state":"CA","zip":"94109","lat":"37.7862531","lng":"-122.4185767"},"distance":48.982694177255304},"The Page":{"closestBar":{"name":"Noc Noc","address":"557 Haight Street","city":"San Francisco","state":"CA","zip":"94117","lat":"37.7718173","lng":"-122.4313848"},"distance":488.2696794363992},"The Peak's":{"closestBar":{"name":"Craft On Draught","address":"4054 24th Street","city":"San Francisco","state":"CA","zip":"94114","lat":"37.7515187","lng":"-122.4331843"},"distance":114.03194569484093},"The Phoenix Bar & Restaurant":{"closestBar":{"name":"Wildhawk","address":"3464 19th Street","city":"San Francisco","state":"CA","zip":"94110","lat":"37.7602784","lng":"-122.4207889"},"distance":55.15490083762064},"The Plough & Stars":{"closestBar":{"name":"O'Keeffe's Bar","address":"598 5th Avenue","city":"San Francisco","state":"CA","zip":"94118","lat":"37.7774224","lng":"-122.4628314"},"distance":693.3848793972139},"The Pour House":{"closestBar":{"name":"R Bar","address":"1176 Sutter Street","city":"San Francisco","state":"CA","zip":"94109","lat":"37.7880383","lng":"-122.4198636"},"distance":130.32530768296667},"The Pub":{"closestBar":{"name":"Bottom of the Hill","address":"1233 17th Street","city":"San Francisco","state":"CA","zip":"94107","lat":"37.7649597","lng":"-122.3964408"},"distance":459.63743710315293},"The Riddler":{"closestBar":{"name":"The Meatball Bar Hayes St","address":"602 Hayes Street","city":"San Francisco","state":"CA","zip":"94102","lat":"37.7767801","lng":"-122.4265958"},"distance":107.13562939482661},"The Riptide":{"closestBar":{"name":"Ninki Sushi Bar & Restaurant","address":"1439 Taraval Street","city":"San Francisco","state":"CA","zip":"94116","lat":"37.7425926","lng":"-122.4817594"},"distance":2079.4558121447985},"The Saloon":{"closestBar":{"name":"Tope","address":"1326 Grant Avenue","city":"San Francisco","state":"CA","zip":"94133","lat":"37.7992662","lng":"-122.4071498"},"distance":76.37519272176267},"The Spot Restaurant":{"closestBar":{"name":"The Riptide","address":"3639 Taraval Street","city":"San Francisco","state":"CA","zip":"94116","lat":"37.7415774","lng":"-122.5053735"},"distance":1250.3949369410927},"The Stud Bar":{"closestBar":{"name":"Lone Star Saloon","address":"1354 Harrison Street","city":"San Francisco","state":"CA","zip":"94103","lat":"37.77217170000001","lng":"-122.410901"},"distance":107.70458367842808},"The Sycamore":{"closestBar":{"name":"Ken Ken Ramen","address":"3378 18th Street","city":"San Francisco","state":"CA","zip":"94110","lat":"37.7620489","lng":"-122.4188753"},"distance":109.24036923072534},"The Taco Shop at Underdogs":{"closestBar":{"name":"Sozai Restaurant and Sake Lounge","address":"1500 Irving Street","city":"San Francisco","state":"CA","zip":"94122","lat":"37.7638466","lng":"-122.4741211"},"distance":315.0213204244245},"The Tipsy Pig":{"closestBar":{"name":"St Francis Yacht Club","address":"700 Marina Boulevard","city":"San Francisco","state":"CA","zip":"94123","lat":"37.8053388","lng":"-122.4461068"},"distance":785.6459452400825},"The Wild Side West":{"closestBar":{"name":"Blue Cellars","address":"325 Prentiss Street","city":"San Francisco","state":"CA","zip":"94110","lat":"37.7393091","lng":"-122.4119287"},"distance":465.2398047911406},"The Wreck Room":{"closestBar":{"name":"Zeki's Bar","address":"1319 California Street","city":"San Francisco","state":"CA","zip":"94109","lat":"37.7909425","lng":"-122.4161452"},"distance":97.93726060425386},"Thee Parkside":{"closestBar":{"name":"Mission Hills Saloon","address":"491 Potrero Avenue","city":"San Francisco","state":"CA","zip":"94110","lat":"37.7633503","lng":"-122.4071423"},"distance":668.4775793614251},"Thieves Tavern":{"closestBar":{"name":"The 500 Club","address":"500 Guerrero Street","city":"San Francisco","state":"CA","zip":"94110","lat":"37.7630249","lng":"-122.4241968"},"distance":565.1967289443505},"Third Rail":{"closestBar":{"name":"La Stazione Coffee & Wine Bar","address":"701 Pennsylvania Avenue","city":"San Francisco","state":"CA","zip":"94107","lat":"37.757359","lng":"-122.3928782"},"distance":556.9712704387963},"Thread Lounge Inc":{"closestBar":{"name":"Noeteca Wine Bar","address":"1551 Dolores Street","city":"San Francisco","state":"CA","zip":"94110","lat":"37.744568","lng":"-122.4241403"},"distance":239.26284099933133},"Tiki Haven":{"closestBar":{"name":"The Eagles Drift Inn","address":"1232 Noriega Street","city":"San Francisco","state":"CA","zip":"94122","lat":"37.7544435","lng":"-122.4770855"},"distance":97.95930295473005},"Titanic":{"closestBar":{"name":"The Alibi","address":"839 Geary Street","city":"San Francisco","state":"CA","zip":"94109","lat":"37.7861207","lng":"-122.4170595"},"distance":115.50034992658432},"Toad Hall":{"closestBar":{"name":"Cafe Mystique","address":"2369 Market Street","city":"San Francisco","state":"CA","zip":"94114","lat":"37.7629801","lng":"-122.4343502"},"distance":255.80453843670463},"Toad's Food & Drink":{"closestBar":{"name":"Clooney's Pub","address":"1401 Valencia Street","city":"San Francisco","state":"CA","zip":"94110","lat":"37.7504268","lng":"-122.4202389"},"distance":154.5629799575162},"Tommy's Joynt":{"closestBar":{"name":"Diva's","address":"1081 Post Street","city":"San Francisco","state":"CA","zip":"94109","lat":"37.7866128","lng":"-122.4194948"},"distance":235.14531900646762},"Tonga Room":{"closestBar":{"name":"Nob Hill Club at the Mark Hopkins","address":"1 Nob Hill Place","city":"San Francisco","state":"CA","zip":"94108","lat":"37.7911465","lng":"-122.4101366"},"distance":138.13671865587986},"Tonic":{"closestBar":{"name":"Cafe Meuse","address":"1400 Pacific Avenue","city":"San Francisco","state":"CA","zip":"94109","lat":"37.7955549","lng":"-122.4184725"},"distance":477.5762040043316},"Tony Nik's Cafe":{"closestBar":{"name":"Chief Sullivan's","address":"622 Green Street","city":"San Francisco","state":"CA","zip":"94133","lat":"37.7995614","lng":"-122.4096741"},"distance":87.05585667109165},"Tony's Cable Car Restaurant":{"closestBar":{"name":"The Mint Space","address":"3153 California Street","city":"San Francisco","state":"CA","zip":"94115","lat":"37.7873189","lng":"-122.4462082"},"distance":510.1719045195912},"Top of the Mark":{"closestBar":{"name":"Tonga Room","address":"950 Mason Street","city":"San Francisco","state":"CA","zip":"94108","lat":"37.7923883","lng":"-122.4100923"},"distance":138.13671865587986},"Tope":{"closestBar":{"name":"The Saloon","address":"1232 Grant Avenue","city":"San Francisco","state":"CA","zip":"94133","lat":"37.7985867","lng":"-122.4070229"},"distance":76.37519272176267},"Topsy's Fun House":{"closestBar":{"name":"Taj Campton Place Restaurant","address":"340 Stockton Street","city":"San Francisco","state":"CA","zip":"94108","lat":"37.7890965","lng":"-122.4065745"},"distance":303.22213004402704},"Toronado":{"closestBar":{"name":"The Page","address":"298 Divisadero Street","city":"San Francisco","state":"CA","zip":"94117","lat":"37.7721319","lng":"-122.4369257"},"distance":510.46855666608195},"Trad'r Sam":{"closestBar":{"name":"Tee Off Bar & Grill","address":"3129 Clement Street","city":"San Francisco","state":"CA","zip":"94121","lat":"37.7814398","lng":"-122.4929594"},"distance":652.3266334783693},"Tradition":{"closestBar":{"name":"Bourbon & Branch","address":"501 Jones Street","city":"San Francisco","state":"CA","zip":"94102","lat":"37.7858891","lng":"-122.4131245"},"distance":40.55325901309499},"Trax":{"closestBar":{"name":"Magnolia Brewing - Haight","address":"1398 Haight Street","city":"San Francisco","state":"CA","zip":"94117","lat":"37.7703879","lng":"-122.4451741"},"distance":88.28781631092225},"Tres Agaves Restaurant":{"closestBar":{"name":"The Brixton on 2nd","address":"701 2nd Street","city":"San Francisco","state":"CA","zip":"94107","lat":"37.7806206","lng":"-122.3900016"},"distance":133.70187057281174},"Trick Dog":{"closestBar":{"name":"Atlas Cafe","address":"3049 20th Street","city":"San Francisco","state":"CA","zip":"94110","lat":"37.7589411","lng":"-122.411453"},"distance":48.87913814127021},"Triple Voodoo Brewery":{"closestBar":{"name":"Cesar's Latin Palace","address":"820 26th Street","city":"San Francisco","state":"CA","zip":"94107","lat":"37.7516788","lng":"-122.388126"},"distance":1061.2249801113094},"Tropi-Gala":{"closestBar":{"name":"Friends Bar","address":"558 Monterey Boulevard","city":"San Francisco","state":"CA","zip":"94127","lat":"37.7318103","lng":"-122.4479402"},"distance":1023.3660751797152},"Tunner Top":{"closestBar":{"name":"Top of the Mark","address":"1 Nob Hill Place","city":"San Francisco","state":"CA","zip":"94108","lat":"37.7911465","lng":"-122.4101366"},"distance":262.65333073060674},"Twenty Five Lusk":{"closestBar":{"name":"Alchemist Bar & Lounge","address":"679 3rd Street","city":"San Francisco","state":"CA","zip":"94107","lat":"37.7792561","lng":"-122.3930809"},"distance":137.6951413705471},"Twin Peaks Tavern":{"closestBar":{"name":"Last Call","address":"3988 18th Street","city":"San Francisco","state":"CA","zip":"94114","lat":"37.7612167","lng":"-122.4324826"},"distance":246.1305943280725},"Two Lips Bar & Lounge":{"closestBar":{"name":"Forgery","address":"1525 Mission Street","city":"San Francisco","state":"CA","zip":"94103","lat":"37.7737843","lng":"-122.4175169"},"distance":289.90572188547765},"Two Sisters Bar and Books":{"closestBar":{"name":"The Riddler","address":"528 Laguna Street","city":"San Francisco","state":"CA","zip":"94102","lat":"37.7759402","lng":"-122.4259985"},"distance":54.91883182877367},"Under Dog Sports Bar & Grill":{"closestBar":{"name":"Social Kitchen & Brewery","address":"1326 9th Avenue","city":"San Francisco","state":"CA","zip":"94122","lat":"37.7634951","lng":"-122.4660283"},"distance":1027.0248781168107},"Union Square Sports Bar":{"closestBar":{"name":"Urban Tavern","address":"333 O'Farrell Street","city":"San Francisco","state":"CA","zip":"94102","lat":"37.7857289","lng":"-122.4104463"},"distance":141.97353005495515},"United Love Inc":{"closestBar":{"name":"Pizza Inferno Restaurant & Bar","address":"1800 Fillmore Street","city":"San Francisco","state":"CA","zip":"94115","lat":"37.786249","lng":"-122.4331212"},"distance":437.62457659637846},"Unitedstatespostalservice Club":{"closestBar":{"name":"Usmailforwarding Club","address":"1124 Sutter Street","city":"San Francisco","state":"CA","zip":"94109","lat":"37.7880899","lng":"-122.4190508"},"distance":151.77641305762845},"University Club":{"closestBar":{"name":"R & G Lounge","address":"631 Kearny Street","city":"San Francisco","state":"CA","zip":"94108","lat":"37.7940903","lng":"-122.4049254"},"distance":407.56238757355925},"Upcider":{"closestBar":{"name":"Unitedstatespostalservice Club","address":"1260 Bush Street","city":"San Francisco","state":"CA","zip":"94109","lat":"37.7892027","lng":"-122.4180506"},"distance":248.69085157517802},"Uptown":{"closestBar":{"name":"The Phoenix Bar & Restaurant","address":"811 Valencia Street","city":"San Francisco","state":"CA","zip":"94110","lat":"37.7598422","lng":"-122.4210876"},"distance":431.45661717675597},"Urban Tavern":{"closestBar":{"name":"Whiskies of The World Expo","address":"222 Mason Street","city":"San Francisco","state":"CA","zip":"94102","lat":"37.7860081","lng":"-122.4092959"},"distance":105.75446960805934},"Usmailforwarding Club":{"closestBar":{"name":"Whiskey Thieves","address":"839 Geary Street","city":"San Francisco","state":"CA","zip":"94109","lat":"37.7861207","lng":"-122.4170595"},"distance":280.2975276081411},"Veritas":{"closestBar":{"name":"Zombie Village","address":"441 Jones Street","city":"San Francisco","state":"CA","zip":"94102","lat":"37.7855303","lng":"-122.4132072"},"distance":245.75345880781566},"Vertigo":{"closestBar":{"name":"Nara Sushi","address":"1515 Polk Street","city":"San Francisco","state":"CA","zip":"94109","lat":"37.7908041","lng":"-122.4209327"},"distance":374.37011840489146},"Vesuvio":{"closestBar":{"name":"Leung, Will","address":"905 Kearny Street","city":"San Francisco","state":"CA","zip":"94133","lat":"37.7963385","lng":"-122.4053377"},"distance":163.6679396760485},"Victory Hall and Parlor":{"closestBar":{"name":"Brick House Cafe","address":"426 Brannan Street","city":"San Francisco","state":"CA","zip":"94107","lat":"37.7796646","lng":"-122.3952601"},"distance":142.9136186014429},"Vieni Vieni Lucky Spot":{"closestBar":{"name":"Savoy Tivoli","address":"1434 Grant Avenue","city":"San Francisco","state":"CA","zip":"94133","lat":"37.8002402","lng":"-122.407371"},"distance":204.16444331836777},"Vin Debut":{"closestBar":{"name":"Philosopher's Club","address":"824 Ulloa Street","city":"San Francisco","state":"CA","zip":"94127","lat":"37.74089290000001","lng":"-122.4653664"},"distance":49.55667180233326},"Vino Venue":{"closestBar":{"name":"Pizzeria Delfina","address":"688 Mission Street","city":"San Francisco","state":"CA","zip":"94105","lat":"37.786685","lng":"-122.401928"},"distance":8.761189937906002},"Virgil's Sea Room":{"closestBar":{"name":"Toad's Food & Drink","address":"1499 Valencia Street","city":"San Francisco","state":"CA","zip":"94110","lat":"37.7490388","lng":"-122.4201442"},"distance":245.18274839518884},"Vitrine":{"closestBar":{"name":"Fang","address":"660 Howard Street","city":"San Francisco","state":"CA","zip":"94105","lat":"37.785795","lng":"-122.399874"},"distance":137.36620339093898},"Volume Services":{"closestBar":{"name":"Speakeasy Ales & Lagers","address":"1195 Evans Avenue","city":"San Francisco","state":"CA","zip":"94124","lat":"37.73816559999999","lng":"-122.3806629"},"distance":2503.34183062345},"Waterfront Restaurant":{"closestBar":{"name":"Hard Water","address":"Pier 3","city":"San Francisco","state":"CA","zip":"94105","lat":"37.7980305","lng":"-122.394973"},"distance":156.8712780015477},"Wattle Creek Winery":{"closestBar":{"name":"Roc Bar & Nightclub","address":"2801 Leavenworth Street","city":"San Francisco","state":"CA","zip":"94133","lat":"37.8070209","lng":"-122.4193841"},"distance":302.55179998653836},"Wayfare Tavern":{"closestBar":{"name":"Brasserie S & P","address":"222 Sansome Street","city":"San Francisco","state":"CA","zip":"94104","lat":"37.7924577","lng":"-122.4007857"},"distance":221.3315879878048},"Waystone":{"closestBar":{"name":"Aunt Charlies Lounge","address":"133 Turk Street","city":"San Francisco","state":"CA","zip":"94102","lat":"37.7830381","lng":"-122.4113722"},"distance":113.13794629914754},"West Burger N More":{"closestBar":{"name":"Mission Bar","address":"2695 Mission Street","city":"San Francisco","state":"CA","zip":"94110","lat":"37.7540046","lng":"-122.4183895"},"distance":798.5454291904066},"Whiskey Thieves":{"closestBar":{"name":"Veritas","address":"691 O'Farrell Street","city":"San Francisco","state":"CA","zip":"94109","lat":"37.7852205","lng":"-122.4159761"},"distance":138.14477031652564},"Whiskies of The World Expo":{"closestBar":{"name":"Lefty O'Doul's Restaurant & Cocktail Lounge","address":"333 Geary Street","city":"San Francisco","state":"CA","zip":"94102","lat":"37.7871974","lng":"-122.4087708"},"distance":140.06357537008134},"White Horse Restaurant":{"closestBar":{"name":"The European","address":"490 Geary Street","city":"San Francisco","state":"CA","zip":"94102","lat":"37.7871218","lng":"-122.4113976"},"distance":166.05466588887336},"White Rabbit":{"closestBar":{"name":"Atami Sushi Bar & Grill","address":"1662 Lombard Street","city":"San Francisco","state":"CA","zip":"94123","lat":"37.8009568","lng":"-122.4289359"},"distance":636.8223162248667},"Whitechapel":{"closestBar":{"name":"Two Lips Bar & Lounge","address":"1414 Market Street","city":"San Francisco","state":"CA","zip":"94102","lat":"37.7763296","lng":"-122.4182313"},"distance":677.3597383461041},"Wild Hare":{"closestBar":{"name":"The Fishbowl Bar & Grill","address":"1854 Divisadero Street","city":"San Francisco","state":"CA","zip":"94115","lat":"37.7869217","lng":"-122.4400223"},"distance":120.21854278026332},"Wildhawk":{"closestBar":{"name":"Nihon","address":"1779 Folsom Street","city":"San Francisco","state":"CA","zip":"94103","lat":"37.7686788","lng":"-122.4153201"},"distance":1050.5269415777448},"Willkommen Wurst.bier.garten":{"closestBar":{"name":"Fig & Thistle","address":"313 Ivy Street","city":"San Francisco","state":"CA","zip":"94102","lat":"37.77722929999999","lng":"-122.4233794"},"distance":1366.913555951363},"Wine Jar":{"closestBar":{"name":"Palmers Tavern","address":"2298 Fillmore Street","city":"San Francisco","state":"CA","zip":"94115","lat":"37.7906203","lng":"-122.4339111"},"distance":433.15325774748516},"Wines Of California Wine Bar":{"closestBar":{"name":"La Trappe","address":"800 Greenwich Street","city":"San Francisco","state":"CA","zip":"94133","lat":"37.8019982","lng":"-122.4131132"},"distance":796.5701447356258},"Wipeout Bar & Grill":{"closestBar":{"name":"Wattle Creek Winery","address":"900 North Point Street","city":"San Francisco","state":"CA","zip":"94109","lat":"37.8056739","lng":"-122.4223763"},"distance":1152.3273955585582},"Wish":{"closestBar":{"name":"Soma Lounge","address":"1525 Mission Street","city":"San Francisco","state":"CA","zip":"94103","lat":"37.7737843","lng":"-122.4175169"},"distance":388.41054269759445},"Woody Zips":{"closestBar":{"name":"SIP BAR & LOUNGE","address":"787 Broadway","city":"San Francisco","state":"CA","zip":"94133","lat":"37.7973181","lng":"-122.410047"},"distance":251.35635897765115},"Would You Believe":{"closestBar":{"name":"The Plough & Stars","address":"116 Clement Street","city":"San Francisco","state":"CA","zip":"94118","lat":"37.7833917","lng":"-122.4605497"},"distance":829.9901999703496},"Yancy's Saloon":{"closestBar":{"name":"Fireside","address":"603 Irving Street","city":"San Francisco","state":"CA","zip":"94122","lat":"37.7639345","lng":"-122.4644598"},"distance":129.04459229698924},"Z & Y Bistro":{"closestBar":{"name":"Kells Irish Restaurant & Bar","address":"530 Jackson Street","city":"San Francisco","state":"CA","zip":"94133","lat":"37.7965965","lng":"-122.4040771"},"distance":128.6616645522022},"Zam Zam":{"closestBar":{"name":"Kezar Pub","address":"770 Stanyan Street","city":"San Francisco","state":"CA","zip":"94117","lat":"37.7678896","lng":"-122.4529242"},"distance":372.7806865214125},"Zebra Lounge":{"closestBar":{"name":"The Cosmo Bar & Lounge","address":"440 Broadway","city":"San Francisco","state":"CA","zip":"94133","lat":"37.7983532","lng":"-122.4046718"},"distance":50.60975964159566},"Zeki's Bar":{"closestBar":{"name":"The Wreck Room","address":"1390 California Street","city":"San Francisco","state":"CA","zip":"94109","lat":"37.7912325","lng":"-122.4171976"},"distance":97.93726060425386},"Zinc Bar":{"closestBar":{"name":"Orson's Belly","address":"1737 Balboa Street","city":"San Francisco","state":"CA","zip":"94121","lat":"37.7764721","lng":"-122.4778225"},"distance":3185.925804864933},"Zita Wine Bar":{"closestBar":{"name":"Doma Sushi Bar","address":"433 Precita Avenue","city":"San Francisco","state":"CA","zip":"94110","lat":"37.7474949","lng":"-122.4106402"},"distance":606.2827277587708},"Zombie Village":{"closestBar":{"name":"White Horse Restaurant","address":"635 Sutter Street","city":"San Francisco","state":"CA","zip":"94102","lat":"37.7885539","lng":"-122.4108619"},"distance":394.35071427530715}}